[
  {
    "Dimensions": {
      "Crest Elevation": 1520.0,
      "Crest Length": 3800.0,
      "Structural Height": 86.0
    },
    "Identity": {
      "Name": "Agate Dam",
      "Watercourse": "Dry Creek",
      "Project": {
        "Organization": "Rogue River Basin",
        "Year": 1965
      }
    },
    "Location": {
      "County": "Jackson",
      "Latitude": 42.4155,
      "Longitude": -122.7723,
      "State": "Oregon"
    }
  },
  {
    "Dimensions": {
      "Crest Elevation": 3348.0,
      "Crest Length": 1850.0,
      "Structural Height": 110.0
    },
    "Identity": {
      "Name": "Agency Valley Dam",
      "Watercourse": "North Fork of the Malheur River",
      "Project": {
        "Organization": "Vale",
        "Year": 1934
      }
    },
    "Location": {
      "County": "Malheur",
      "Latitude": 43.9117446,
      "Longitude": -118.154354,
      "State": "Oregon"
    }
  },
  {
    "Dimensions": {
      "Crest Elevation": 5510.0,
      "Crest Length": 76300.0,
      "Structural Height": 265.0
    },
    "Identity": {
      "Name": "Alcova Dam",
      "Watercourse": "North Platte River",
      "Project": {
        "Organization": "Kendrick",
        "Year": 1935
      }
    },
    "Location": {
      "County": "Natrona",
      "Latitude": 42.5483,
      "Longitude": -106.7194,
      "State": "Wyoming"
    }
  },
  {
    "Dimensions": {
      "Crest Elevation": 2172.5,
      "Crest Length": 2784.18,
      "Structural Height": 132.17
    },
    "Identity": {
      "Name": "Almena Diversion Dam",
      "Watercourse": "Prairie Dog  Creek",
      "Project": {
        "Organization": "PSMBP - Almena",
        "Year": 1967
      }
    },
    "Location": {
      "County": "Norton",
      "Latitude": 39.76667,
      "Longitude": -100.10041,
      "State": "Kansas"
    }
  },
  {
    "Dimensions": {
      "Crest Elevation": 1564.0,
      "Crest Length": 1104.0,
      "Structural Height": 110.0
    },
    "Identity": {
      "Name": "Altus Dam",
      "Watercourse": "North Fork, Red River",
      "Project": {
        "Organization": "W. C. Austin",
        "Year": 1941
      }
    },
    "Location": {
      "County": "Greer/Kiowa",
      "Latitude": 34.8833,
      "Longitude": -99.3,
      "State": "Oklahoma"
    }
  },
  {
    "Dimensions": {
      "Crest Elevation": 3684.0,
      "Crest Length": 2784.18,
      "Structural Height": 18.0
    },
    "Identity": {
      "Name": "American Diversion Dam",
      "Watercourse": "Rio Grande",
      "Project": {
        "Organization": "Rio Grande",
        "Year": 1938
      }
    },
    "Location": {
      "County": "Dona Ana, NM; El Paso, Tx",
      "Latitude": 36.27807901986153,
      "Longitude": -97.50189279297881,
      "State": "New Mexico"
    }
  },
  {
    "Dimensions": {
      "Crest Elevation": 4366.5,
      "Crest Length": 5277.0,
      "Structural Height": 104.0
    },
    "Identity": {
      "Name": "American Falls Dam",
      "Watercourse": "Snake River",
      "Project": {
        "Organization": "Minidoka",
        "Year": 1925
      }
    },
    "Location": {
      "County": "Power",
      "Latitude": 42.7787,
      "Longitude": -112.8748,
      "State": "Idaho"
    }
  },
  {
    "Dimensions": {
      "Crest Elevation": 6452.5,
      "Crest Length": 660.0,
      "Structural Height": 208.0
    },
    "Identity": {
      "Name": "Anchor Dam",
      "Watercourse": "South Fork, Owl Creek",
      "Project": {
        "Organization": "Owl Creek",
        "Year": 1957
      }
    },
    "Location": {
      "County": "Hot Springs",
      "Latitude": 43.6833,
      "Longitude": -108.8167,
      "State": "Wyoming"
    }
  },
  {
    "Dimensions": {
      "Crest Elevation": 4206.0,
      "Crest Length": 1350.0,
      "Structural Height": 456.0
    },
    "Identity": {
      "Name": "Anderson Ranch Dam",
      "Watercourse": "South Fork of the Boise River",
      "Project": {
        "Organization": "Boise",
        "Year": 1941
      }
    },
    "Location": {
      "County": "Elmore",
      "Latitude": 43.3595096,
      "Longitude": -115.4501724,
      "State": "Idaho"
    }
  },
  {
    "Dimensions": {
      "Crest Elevation": 4064.0,
      "Crest Length": 324.0,
      "Structural Height": 23.0
    },
    "Identity": {
      "Name": "Anderson-Rose Diversion Dam",
      "Watercourse": "Lost River",
      "Project": {
        "Organization": "Klamath",
        "Year": 1921
      }
    },
    "Location": {
      "County": "Klamath",
      "Latitude": 42.0098746,
      "Longitude": -121.5811049,
      "State": "Oregon"
    }
  },
  {
    "Dimensions": {
      "Crest Elevation": 3199.0,
      "Crest Length": 2030.0,
      "Structural Height": 193.0
    },
    "Identity": {
      "Name": "Angostura Dam",
      "Watercourse": "Cheyenne River",
      "Project": {
        "Organization": "PSMBP - Angostura",
        "Year": 1946
      }
    },
    "Location": {
      "County": "Fall River",
      "Latitude": 43.3431,
      "Longitude": -103.4378,
      "State": "South Dakota"
    }
  },
  {
    "Dimensions": {
      "Crest Elevation": 5083.0,
      "Crest Length": 800.0,
      "Structural Height": 17.0
    },
    "Identity": {
      "Name": "Angostura Diversion Dam",
      "Watercourse": "Unknown",
      "Project": {
        "Organization": "Middle Rio Grande",
        "Year": 1934
      }
    },
    "Location": {
      "County": "Sandoval",
      "Latitude": 36.27807901986153,
      "Longitude": -97.50189279297881,
      "State": "New Mexico"
    }
  },
  {
    "Dimensions": {
      "Crest Elevation": 3010.0,
      "Crest Length": 1050.0,
      "Structural Height": 42.0
    },
    "Identity": {
      "Name": "Anita Dam",
      "Watercourse": "Yellowstone River (offstream)",
      "Project": {
        "Organization": "Huntley",
        "Year": 1933
      }
    },
    "Location": {
      "County": "Yellowstone",
      "Latitude": 45.933431151319745,
      "Longitude": -108.0007553100586,
      "State": "Montana"
    }
  },
  {
    "Dimensions": {
      "Crest Elevation": 920.0,
      "Crest Length": 1890.0,
      "Structural Height": 150.0
    },
    "Identity": {
      "Name": "Arbuckle Dam",
      "Watercourse": "Rock creek",
      "Project": {
        "Organization": "Arbuckle",
        "Year": 1964
      }
    },
    "Location": {
      "County": "Murray",
      "Latitude": 34.431389,
      "Longitude": -97.027778,
      "State": "Oklahoma"
    }
  },
  {
    "Dimensions": {
      "Crest Elevation": 3216.0,
      "Crest Length": 1150.0,
      "Structural Height": 350.0
    },
    "Identity": {
      "Name": "Arrowrock Dam",
      "Watercourse": "Boise River",
      "Project": {
        "Organization": "Boise",
        "Year": 1911
      }
    },
    "Location": {
      "County": "Boise/Elmore",
      "Latitude": 43.5952,
      "Longitude": -115.923,
      "State": "Idaho"
    }
  },
  {
    "Dimensions": {
      "Crest Elevation": 3270.0,
      "Crest Length": 800.0,
      "Structural Height": 240.0
    },
    "Identity": {
      "Name": "Arthur R Bowman Dam",
      "Watercourse": "Crooked River",
      "Project": {
        "Organization": "Crooked River",
        "Year": 1958
      }
    },
    "Location": {
      "County": "Crook",
      "Latitude": 44.11125,
      "Longitude": -120.78738,
      "State": "Oregon"
    }
  },
  {
    "Dimensions": {
      "Crest Elevation": 4235.0,
      "Crest Length": 76665.0,
      "Structural Height": 36.0
    },
    "Identity": {
      "Name": "Arthur V Watkins Dam",
      "Watercourse": "offstream Storage",
      "Project": {
        "Organization": "Weber Basin",
        "Year": 1957
      }
    },
    "Location": {
      "County": "Weber",
      "Latitude": 41.405527084061745,
      "Longitude": -112.0909309387207,
      "State": "Utah"
    }
  },
  {
    "Dimensions": {
      "Crest Elevation": 3194.0,
      "Crest Length": 1025.0,
      "Structural Height": 60.0
    },
    "Identity": {
      "Name": "Avalon Dam",
      "Watercourse": "Pecos River",
      "Project": {
        "Organization": "Carlsbad",
        "Year": 1907
      }
    },
    "Location": {
      "County": "Eddy",
      "Latitude": 32.4908,
      "Longitude": -104.2553,
      "State": "New Mexico"
    }
  },
  {
    "Dimensions": {
      "Crest Elevation": 554.0,
      "Crest Length": 18600.0,
      "Structural Height": 382.0
    },
    "Identity": {
      "Name": "B F Sisk Dam",
      "Watercourse": "San Luis Creek",
      "Project": {
        "Organization": "Central Valley",
        "Year": 1963
      }
    },
    "Location": {
      "County": "Merced",
      "Latitude": 37.0583,
      "Longitude": -121.075,
      "State": "California"
    }
  },
  {
    "Dimensions": {
      "Crest Elevation": 5255.0,
      "Crest Length": 1720.0,
      "Structural Height": 11.0
    },
    "Identity": {
      "Name": "Barretts Diversion Dam",
      "Watercourse": "Beaverhead River",
      "Project": {
        "Organization": "East Bench Unit, Pick-Sloan Missouri Basin Program",
        "Year": 1963
      }
    },
    "Location": {
      "County": "Beaverhead",
      "Latitude": 45.1302,
      "Longitude": -112.7403,
      "State": "Montana"
    }
  },
  {
    "Dimensions": {
      "Crest Elevation": 1821.0,
      "Crest Length": 823.0,
      "Structural Height": 308.5
    },
    "Identity": {
      "Name": "Bartlett Dam",
      "Watercourse": "Verde River",
      "Project": {
        "Organization": "Salt River",
        "Year": 1936
      }
    },
    "Location": {
      "County": "Maricopa",
      "Latitude": 33.81825,
      "Longitude": -111.631856,
      "State": "Arizona"
    }
  },
  {
    "Dimensions": {
      "Crest Elevation": 4141.1,
      "Crest Length": 2784.18,
      "Structural Height": 27.0
    },
    "Identity": {
      "Name": "Bartley Diversion Dam",
      "Watercourse": "Republican River",
      "Project": {
        "Organization": "PSMBP - Frenchman",
        "Year": 1954
      }
    },
    "Location": {
      "County": "Unknown",
      "Latitude": 40.22509,
      "Longitude": -100.38695,
      "State": "Nebraska"
    }
  },
  {
    "Dimensions": {
      "Crest Elevation": 4141.1,
      "Crest Length": 2784.18,
      "Structural Height": 132.17
    },
    "Identity": {
      "Name": "Belle Fourche Dam",
      "Watercourse": "Belle Fourch River",
      "Project": {
        "Organization": "Belle Fourche",
        "Year": 0
      }
    },
    "Location": {
      "County": "Butte",
      "Latitude": 44.7367,
      "Longitude": -103.67,
      "State": "South Dakota"
    }
  },
  {
    "Dimensions": {
      "Crest Elevation": 2998.0,
      "Crest Length": 2523.0,
      "Structural Height": 36.0
    },
    "Identity": {
      "Name": "Belle Fourche Diversion Dam",
      "Watercourse": "Belle Fourch River",
      "Project": {
        "Organization": "Belle Fourche",
        "Year": 1907
      }
    },
    "Location": {
      "County": "Butte",
      "Latitude": 44.69057,
      "Longitude": -103.83068,
      "State": "South Dakota"
    }
  },
  {
    "Dimensions": {
      "Crest Elevation": 6769.0,
      "Crest Length": 2350.0,
      "Structural Height": 85.0
    },
    "Identity": {
      "Name": "Big Sandy Dam",
      "Watercourse": "Big Sandy Creek",
      "Project": {
        "Organization": "Eden",
        "Year": 1941
      }
    },
    "Location": {
      "County": "Sweetwater",
      "Latitude": 42.249232907097614,
      "Longitude": -109.42863464355469,
      "State": "Wyoming"
    }
  },
  {
    "Dimensions": {
      "Crest Elevation": 2500.0,
      "Crest Length": 2784.18,
      "Structural Height": 183.0
    },
    "Identity": {
      "Name": "Black Canyon Diversion Dam",
      "Watercourse": "Payette River",
      "Project": {
        "Organization": "Boise",
        "Year": 1922
      }
    },
    "Location": {
      "County": "Gem",
      "Latitude": 43.9314,
      "Longitude": -116.43756,
      "State": "Idaho"
    }
  },
  {
    "Dimensions": {
      "Crest Elevation": 7528.0,
      "Crest Length": 785.0,
      "Structural Height": 502.0
    },
    "Identity": {
      "Name": "Blue Mesa Dam",
      "Watercourse": "Gunnison",
      "Project": {
        "Organization": "Colorado River Storage",
        "Year": 1962
      }
    },
    "Location": {
      "County": "Gunnison",
      "Latitude": 38.4533,
      "Longitude": -107.3333,
      "State": "Colorado"
    }
  },
  {
    "Dimensions": {
      "Crest Elevation": 5615.0,
      "Crest Length": 1629.0,
      "Structural Height": 93.0
    },
    "Identity": {
      "Name": "Boca Dam",
      "Watercourse": "Little Truckee River",
      "Project": {
        "Organization": "Truckee Storage",
        "Year": 1937
      }
    },
    "Location": {
      "County": "Nevada",
      "Latitude": 36.27807901986153,
      "Longitude": -97.50189279297881,
      "State": "California"
    }
  },
  {
    "Dimensions": {
      "Crest Elevation": 2829.84,
      "Crest Length": 500.0,
      "Structural Height": 68.0
    },
    "Identity": {
      "Name": "Boise River Diversion Dam",
      "Watercourse": "Boise River",
      "Project": {
        "Organization": "Boise",
        "Year": 1906
      }
    },
    "Location": {
      "County": "Ada",
      "Latitude": 43.5383,
      "Longitude": -116.0933,
      "State": "Idaho"
    }
  },
  {
    "Dimensions": {
      "Crest Elevation": 3742.0,
      "Crest Length": 9200.0,
      "Structural Height": 158.0
    },
    "Identity": {
      "Name": "Bonny Dam",
      "Watercourse": "SF Republican R.",
      "Project": {
        "Organization": "PSMBP - Armel Unit",
        "Year": 1948
      }
    },
    "Location": {
      "County": "Yuma",
      "Latitude": 39.6233,
      "Longitude": -102.1733,
      "State": "Colorado"
    }
  },
  {
    "Dimensions": {
      "Crest Elevation": 4024.0,
      "Crest Length": 5508.0,
      "Structural Height": 87.0
    },
    "Identity": {
      "Name": "Box Butte Dam",
      "Watercourse": "Niobrara River",
      "Project": {
        "Organization": "Mirage Flats",
        "Year": 1941
      }
    },
    "Location": {
      "County": "Daws",
      "Latitude": 42.4583,
      "Longitude": -103.0847,
      "State": "Nebraska"
    }
  },
  {
    "Dimensions": {
      "Crest Elevation": 4758.0,
      "Crest Length": 1143.0,
      "Structural Height": 220.0
    },
    "Identity": {
      "Name": "Boysen Dam",
      "Watercourse": "Wind River",
      "Project": {
        "Organization": "Boysen Unit, Pick-Sloan Missouri River Basin Program",
        "Year": 1947
      }
    },
    "Location": {
      "County": "Fremont",
      "Latitude": 43.2456,
      "Longitude": -108.104,
      "State": "Wyoming"
    }
  },
  {
    "Dimensions": {
      "Crest Elevation": 766.0,
      "Crest Length": 2784.18,
      "Structural Height": 279.0
    },
    "Identity": {
      "Name": "Bradbury Dam",
      "Watercourse": "Santa Ynex River",
      "Project": {
        "Organization": "Cachuma",
        "Year": 1950
      }
    },
    "Location": {
      "County": "Santa Barbara",
      "Latitude": 34.5833,
      "Longitude": -119.9833,
      "State": "California"
    }
  },
  {
    "Dimensions": {
      "Crest Elevation": 3308.5,
      "Crest Length": 20850.0,
      "Structural Height": 158.5
    },
    "Identity": {
      "Name": "Brantley Dam",
      "Watercourse": "Pecos River",
      "Project": {
        "Organization": "Brantley",
        "Year": 1984
      }
    },
    "Location": {
      "County": "Eddy",
      "Latitude": 32.59686621467839,
      "Longitude": -104.34951782226562,
      "State": "New Mexico"
    }
  },
  {
    "Dimensions": {
      "Crest Elevation": 4141.1,
      "Crest Length": 2784.18,
      "Structural Height": 132.17
    },
    "Identity": {
      "Name": "Bretch Diversion Dam",
      "Watercourse": "Elk Creek",
      "Project": {
        "Organization": "Mountain Park",
        "Year": 1975
      }
    },
    "Location": {
      "County": "Kiowa",
      "Latitude": 34.93663,
      "Longitude": -99.1097,
      "State": "Oklahoma"
    }
  },
  {
    "Dimensions": {
      "Crest Elevation": 8198.0,
      "Crest Length": 28.0,
      "Structural Height": 8.0
    },
    "Identity": {
      "Name": "Broadhead Diversion Dam",
      "Watercourse": "Boadhead Creek",
      "Project": {
        "Organization": "Provo River",
        "Year": 1953
      }
    },
    "Location": {
      "County": "Summit",
      "Latitude": 36.27807901986153,
      "Longitude": -97.50189279297881,
      "State": "Utah"
    }
  },
  {
    "Dimensions": {
      "Crest Elevation": 2815.0,
      "Crest Length": 700.0,
      "Structural Height": 90.0
    },
    "Identity": {
      "Name": "Buckhorn Dam",
      "Watercourse": "Grass Valley Creek",
      "Project": {
        "Organization": "Central Valley",
        "Year": 1988
      }
    },
    "Location": {
      "County": "Trinity",
      "Latitude": 36.27807901986153,
      "Longitude": -97.50189279297881,
      "State": "California"
    }
  },
  {
    "Dimensions": {
      "Crest Elevation": 5395.0,
      "Crest Length": 200.0,
      "Structural Height": 350.0
    },
    "Identity": {
      "Name": "Buffalo Bill Dam",
      "Watercourse": "Shoshone River",
      "Project": {
        "Organization": "Shoshone",
        "Year": 1905
      }
    },
    "Location": {
      "County": "Park",
      "Latitude": 44.3002,
      "Longitude": -109.11,
      "State": "Wyoming"
    }
  },
  {
    "Dimensions": {
      "Crest Elevation": 5813.0,
      "Crest Length": 3456.0,
      "Structural Height": 68.0
    },
    "Identity": {
      "Name": "Bull Lake Dam",
      "Watercourse": "Bull Lake Creek",
      "Project": {
        "Organization": "PSMBP - Riverton Unit",
        "Year": 1936
      }
    },
    "Location": {
      "County": "Fremont",
      "Latitude": 43.2097,
      "Longitude": -109.0583,
      "State": "Wyoming"
    }
  },
  {
    "Dimensions": {
      "Crest Elevation": 2529.0,
      "Crest Length": 3070.0,
      "Structural Height": 121.0
    },
    "Identity": {
      "Name": "Bully Creek Dam",
      "Watercourse": "Bully Creek",
      "Project": {
        "Organization": "Vale",
        "Year": 1962
      }
    },
    "Location": {
      "County": "Malheur",
      "Latitude": 44.0147313,
      "Longitude": -117.396898,
      "State": "Oregon"
    }
  },
  {
    "Dimensions": {
      "Crest Elevation": 3435.0,
      "Crest Length": 3425.0,
      "Structural Height": 61.0
    },
    "Identity": {
      "Name": "Bumping Lake Dam",
      "Watercourse": "Bumping River",
      "Project": {
        "Organization": "Yakima",
        "Year": 1909
      }
    },
    "Location": {
      "County": "Yakima",
      "Latitude": 46.8712,
      "Longitude": -121.29936,
      "State": "Washington"
    }
  },
  {
    "Dimensions": {
      "Crest Elevation": 6720.0,
      "Crest Length": 492.0,
      "Structural Height": 187.0
    },
    "Identity": {
      "Name": "C.C. Cragin",
      "Watercourse": "East Clear Creek",
      "Project": {
        "Organization": "Salt River",
        "Year": 1964
      }
    },
    "Location": {
      "County": "Coconino",
      "Latitude": 34.5550265,
      "Longitude": -111.1840252,
      "State": "Arizona"
    }
  },
  {
    "Dimensions": {
      "Crest Elevation": 4190.0,
      "Crest Length": 4590.0,
      "Structural Height": 96.0
    },
    "Identity": {
      "Name": "Caballo Dam",
      "Watercourse": "Rio Grande",
      "Project": {
        "Organization": "Rio Grande",
        "Year": 1936
      }
    },
    "Location": {
      "County": "Sierra",
      "Latitude": 32.8964,
      "Longitude": -107.2917,
      "State": "New Mexico"
    }
  },
  {
    "Dimensions": {
      "Crest Elevation": 4141.1,
      "Crest Length": 2784.18,
      "Structural Height": 132.17
    },
    "Identity": {
      "Name": "Cambridge Diversion Dam",
      "Watercourse": "Republican River",
      "Project": {
        "Organization": "PSMBP - Frenchman",
        "Year": 1949
      }
    },
    "Location": {
      "County": "Unknown",
      "Latitude": 40.28511,
      "Longitude": -100.12054,
      "State": "Nebraska"
    }
  },
  {
    "Dimensions": {
      "Crest Elevation": 3558.0,
      "Crest Length": 119.0,
      "Structural Height": 20.0
    },
    "Identity": {
      "Name": "Camp Creek Diversion Dam",
      "Watercourse": "Camp Creek",
      "Project": {
        "Organization": "CVP - Sly Park",
        "Year": 1953
      }
    },
    "Location": {
      "County": "El Dorado",
      "Latitude": 36.27807901986153,
      "Longitude": -97.50189279297881,
      "State": "California"
    }
  },
  {
    "Dimensions": {
      "Crest Elevation": 1445.0,
      "Crest Length": 872.0,
      "Structural Height": 79.0
    },
    "Identity": {
      "Name": "Camp Dyer Diversion Dam",
      "Watercourse": "Agua Fria River",
      "Project": {
        "Organization": "Central Arizona",
        "Year": 1926
      }
    },
    "Location": {
      "County": "Maricopa",
      "Latitude": 33.8378,
      "Longitude": -112.2705,
      "State": "Arizona"
    }
  },
  {
    "Dimensions": {
      "Crest Elevation": 3808.5,
      "Crest Length": 1000.0,
      "Structural Height": 225.0
    },
    "Identity": {
      "Name": "Canyon Ferry Dam",
      "Watercourse": "Missouri River",
      "Project": {
        "Organization": "Canyon Ferry Unit, Pick-Sloan Missouri Basin Program",
        "Year": 1949
      }
    },
    "Location": {
      "County": "Lewis and Clark",
      "Latitude": 46.64797101519256,
      "Longitude": -111.72786712646484,
      "State": "Montana"
    }
  },
  {
    "Dimensions": {
      "Crest Elevation": 385.25,
      "Crest Length": 2784.18,
      "Structural Height": 31.0
    },
    "Identity": {
      "Name": "Carpinteria Dam",
      "Watercourse": "offstream Storage",
      "Project": {
        "Organization": "Cachuma",
        "Year": 1951
      }
    },
    "Location": {
      "County": "Santa Brbara",
      "Latitude": 34.4067,
      "Longitude": -119.485,
      "State": "California"
    }
  },
  {
    "Dimensions": {
      "Crest Elevation": 4024.0,
      "Crest Length": 241.0,
      "Structural Height": 23.0
    },
    "Identity": {
      "Name": "Carson River Diversion Dam",
      "Watercourse": "Carson River",
      "Project": {
        "Organization": "Newlands",
        "Year": 1905
      }
    },
    "Location": {
      "County": "Churchill",
      "Latitude": 36.27807901986153,
      "Longitude": -97.50189279297881,
      "State": "Nevada"
    }
  },
  {
    "Dimensions": {
      "Crest Elevation": 10133.75,
      "Crest Length": 46.0,
      "Structural Height": 8.75
    },
    "Identity": {
      "Name": "Carter Creek Diversion Dam",
      "Watercourse": "Carter Creek",
      "Project": {
        "Organization": "Fryingpan-Arkansas",
        "Year": 1976
      }
    },
    "Location": {
      "County": "Eagle",
      "Latitude": 39.21593,
      "Longitude": -106.32372,
      "State": "Colorado"
    }
  },
  {
    "Dimensions": {
      "Crest Elevation": 5769.0,
      "Crest Length": 1235.0,
      "Structural Height": 214.0
    },
    "Identity": {
      "Name": "Carter Lake Dam",
      "Watercourse": "offstream Storage",
      "Project": {
        "Organization": "Colorado-Big Thompson",
        "Year": 1950
      }
    },
    "Location": {
      "County": "Grand",
      "Latitude": 40.325,
      "Longitude": -105.2117,
      "State": "Colorado"
    }
  },
  {
    "Dimensions": {
      "Crest Elevation": 4840.0,
      "Crest Length": 785.0,
      "Structural Height": 107.0
    },
    "Identity": {
      "Name": "Cascade Dam",
      "Watercourse": "North Fork Payette River",
      "Project": {
        "Organization": "Boise",
        "Year": 1946
      }
    },
    "Location": {
      "County": "Valley",
      "Latitude": 44.524997,
      "Longitude": -116.050279,
      "State": "Idaho"
    }
  },
  {
    "Dimensions": {
      "Crest Elevation": 585.0,
      "Crest Length": 2000.0,
      "Structural Height": 334.0
    },
    "Identity": {
      "Name": "Casitas Dam",
      "Watercourse": "Coyote Creek",
      "Project": {
        "Organization": "Ventura River",
        "Year": 1956
      }
    },
    "Location": {
      "County": "Ventura",
      "Latitude": 34.37,
      "Longitude": -119.3361,
      "State": "California"
    }
  },
  {
    "Dimensions": {
      "Crest Elevation": 5704.0,
      "Crest Length": 845.0,
      "Structural Height": 217.5
    },
    "Identity": {
      "Name": "Causey Dam",
      "Watercourse": "SF Ogden River",
      "Project": {
        "Organization": "Weber Basin",
        "Year": 1962
      }
    },
    "Location": {
      "County": "Weber",
      "Latitude": 41.290189955885644,
      "Longitude": -111.5829849243164,
      "State": "Utah"
    }
  },
  {
    "Dimensions": {
      "Crest Elevation": 2198.0,
      "Crest Length": 12560.0,
      "Structural Height": 202.0
    },
    "Identity": {
      "Name": "Cedar Bluff Dam",
      "Watercourse": "Smoky Hill River",
      "Project": {
        "Organization": "PSMBP-Cedar Bluff",
        "Year": 1949
      }
    },
    "Location": {
      "County": "Trego",
      "Latitude": 38.7917,
      "Longitude": -99.725,
      "State": "Kansas"
    }
  },
  {
    "Dimensions": {
      "Crest Elevation": 10045.0,
      "Crest Length": 131.0,
      "Structural Height": 15.0
    },
    "Identity": {
      "Name": "Chapman Diversion Dam",
      "Watercourse": "Chapman Gulch",
      "Project": {
        "Organization": "Fryingpan-Arkansas",
        "Year": 1965
      }
    },
    "Location": {
      "County": "Pitkin",
      "Latitude": 39.3163756,
      "Longitude": -106.640589,
      "State": "Colorado"
    }
  },
  {
    "Dimensions": {
      "Crest Elevation": 1454.0,
      "Crest Length": 24458.0,
      "Structural Height": 126.2
    },
    "Identity": {
      "Name": "Cheney Dam",
      "Watercourse": "NF of Ninnescah R.",
      "Project": {
        "Organization": "Wichita",
        "Year": 1962
      }
    },
    "Location": {
      "County": "Reno, Kingman, Sedgwick",
      "Latitude": 37.7306,
      "Longitude": -97.793,
      "State": "Kansas"
    }
  },
  {
    "Dimensions": {
      "Crest Elevation": 241.14,
      "Crest Length": 18471.0,
      "Structural Height": 141.96
    },
    "Identity": {
      "Name": "Choke Canyon Dam",
      "Watercourse": "Frio River",
      "Project": {
        "Organization": "Nueces River",
        "Year": 1981
      }
    },
    "Location": {
      "County": "Live Oak",
      "Latitude": 28.3125,
      "Longitude": -98.2458,
      "State": "Texas"
    }
  },
  {
    "Dimensions": {
      "Crest Elevation": 5578.0,
      "Crest Length": 2950.0,
      "Structural Height": 147.5
    },
    "Identity": {
      "Name": "Clark Canyon Dam",
      "Watercourse": "Beaverhead River",
      "Project": {
        "Organization": "East Bench Unit, Pick-Sloan Missouri Basin Program",
        "Year": 1961
      }
    },
    "Location": {
      "County": "Beaverhead",
      "Latitude": 45.000415406254376,
      "Longitude": -112.85834312438965,
      "State": "Montana"
    }
  },
  {
    "Dimensions": {
      "Crest Elevation": 2250.0,
      "Crest Length": 1800.0,
      "Structural Height": 165.0
    },
    "Identity": {
      "Name": "Cle Elum Dam",
      "Watercourse": "Cle Elum River",
      "Project": {
        "Organization": "Yakima",
        "Year": 1931
      }
    },
    "Location": {
      "County": "Kittitas",
      "Latitude": 47.2469,
      "Longitude": -121.073112,
      "State": "Washington"
    }
  },
  {
    "Dimensions": {
      "Crest Elevation": 3016.0,
      "Crest Length": 404.0,
      "Structural Height": 83.0
    },
    "Identity": {
      "Name": "Clear Creek Dam",
      "Watercourse": "Tieton River",
      "Project": {
        "Organization": "Yakima",
        "Year": 1914
      }
    },
    "Location": {
      "County": "Yakima",
      "Latitude": 46.6278934,
      "Longitude": -121.270915,
      "State": "Washington"
    }
  },
  {
    "Dimensions": {
      "Crest Elevation": 4552.0,
      "Crest Length": 840.0,
      "Structural Height": 42.0
    },
    "Identity": {
      "Name": "Clear Lake Dam",
      "Watercourse": "Lost River",
      "Project": {
        "Organization": "Klamath",
        "Year": 1908
      }
    },
    "Location": {
      "County": "Modoc",
      "Latitude": 45.1767,
      "Longitude": -121.6883,
      "State": "California"
    }
  },
  {
    "Dimensions": {
      "Crest Elevation": 629.9,
      "Crest Length": 3450.0,
      "Structural Height": 115.0
    },
    "Identity": {
      "Name": "Cold Springs Dam",
      "Watercourse": "Off-stream",
      "Project": {
        "Organization": "Umatilla Basin",
        "Year": 1908
      }
    },
    "Location": {
      "County": "Umatilla",
      "Latitude": 45.8592328,
      "Longitude": -119.173679,
      "State": "Oregon"
    }
  },
  {
    "Dimensions": {
      "Crest Elevation": 4249.0,
      "Crest Length": 2550.0,
      "Structural Height": 85.0
    },
    "Identity": {
      "Name": "Como Dam",
      "Watercourse": "Rock Creek",
      "Project": {
        "Organization": "Bitter Root",
        "Year": 1908
      }
    },
    "Location": {
      "County": "Ravalli",
      "Latitude": 46.0617,
      "Longitude": -114.2333,
      "State": "Montana"
    }
  },
  {
    "Dimensions": {
      "Crest Elevation": 2301.0,
      "Crest Length": 1075.0,
      "Structural Height": 72.0
    },
    "Identity": {
      "Name": "Conconully Dam",
      "Watercourse": "Salmon Creek",
      "Project": {
        "Organization": "Okanogan",
        "Year": 1910
      }
    },
    "Location": {
      "County": "Okanogan",
      "Latitude": 48.5370932,
      "Longitude": -119.7486774,
      "State": "Washington"
    }
  },
  {
    "Dimensions": {
      "Crest Elevation": 217.0,
      "Crest Length": 1050.0,
      "Structural Height": 107.0
    },
    "Identity": {
      "Name": "Contra Loma Dam",
      "Watercourse": "offstream storage",
      "Project": {
        "Organization": "Central Valey",
        "Year": 1966
      }
    },
    "Location": {
      "County": "Contra Costa",
      "Latitude": 37.9772,
      "Longitude": -121.8231,
      "State": "California"
    }
  },
  {
    "Dimensions": {
      "Crest Elevation": 46255.0,
      "Crest Length": 938.0,
      "Structural Height": 18.0
    },
    "Identity": {
      "Name": "Corbett Diversion Dam",
      "Watercourse": "Shoshone River",
      "Project": {
        "Organization": "Shoshone",
        "Year": 1908
      }
    },
    "Location": {
      "County": "Park",
      "Latitude": 44.58953,
      "Longitude": -108.95428,
      "State": "Wyoming"
    }
  },
  {
    "Dimensions": {
      "Crest Elevation": 4455.0,
      "Crest Length": 285.0,
      "Structural Height": 36.0
    },
    "Identity": {
      "Name": "Crane Prairie Dam",
      "Watercourse": "Deschutes River",
      "Project": {
        "Organization": "Deschutes",
        "Year": 1939
      }
    },
    "Location": {
      "County": "Deschutes",
      "Latitude": 43.755,
      "Longitude": -121.785,
      "State": "Oregon"
    }
  },
  {
    "Dimensions": {
      "Crest Elevation": 6578.0,
      "Crest Length": 580.0,
      "Structural Height": 162.0
    },
    "Identity": {
      "Name": "Crawford Dam",
      "Watercourse": "Iron Creek",
      "Project": {
        "Organization": "Smith Fork",
        "Year": 1960
      }
    },
    "Location": {
      "County": "Delta",
      "Latitude": 38.69073544820042,
      "Longitude": -107.6081657409668,
      "State": "Colorado"
    }
  },
  {
    "Dimensions": {
      "Crest Elevation": 6772.0,
      "Crest Length": 620.0,
      "Structural Height": 323.0
    },
    "Identity": {
      "Name": "Crystal Dam",
      "Watercourse": "Gunnison River",
      "Project": {
        "Organization": "Colorado River Storage",
        "Year": 1972
      }
    },
    "Location": {
      "County": "Montrose",
      "Latitude": 38.453588708941375,
      "Longitude": -107.33505249023438,
      "State": "Colorado"
    }
  },
  {
    "Dimensions": {
      "Crest Elevation": 2744.0,
      "Crest Length": 150.0,
      "Structural Height": 17.0
    },
    "Identity": {
      "Name": "Culbertson Diversion Dam",
      "Watercourse": "Frenchman",
      "Project": {
        "Organization": "PSMBP-Frenchman-Cambridge",
        "Year": 1959
      }
    },
    "Location": {
      "County": "Hayes",
      "Latitude": 40.36186,
      "Longitude": -101.10267,
      "State": "Nebraska"
    }
  },
  {
    "Dimensions": {
      "Crest Elevation": 7692.0,
      "Crest Length": 1600.0,
      "Structural Height": 164.0
    },
    "Identity": {
      "Name": "Currant Creek Dam",
      "Watercourse": "Currant Creek",
      "Project": {
        "Organization": "CUP - Bonneville Unit",
        "Year": 1974
      }
    },
    "Location": {
      "County": "Wasatch",
      "Latitude": 40.33215123550075,
      "Longitude": -111.05186462402344,
      "State": "Utah"
    }
  },
  {
    "Dimensions": {
      "Crest Elevation": 2094.0,
      "Crest Length": 2900.0,
      "Structural Height": 153.0
    },
    "Identity": {
      "Name": "Davis Creek Dam",
      "Watercourse": "Tributary to Davis Creek",
      "Project": {
        "Organization": "PSMBP-North Loup",
        "Year": 19
      }
    },
    "Location": {
      "County": "Sherman",
      "Latitude": 41.41568,
      "Longitude": -98.74793,
      "State": "Nebraska"
    }
  },
  {
    "Dimensions": {
      "Crest Elevation": 655.0,
      "Crest Length": 1600.0,
      "Structural Height": 200.0
    },
    "Identity": {
      "Name": "Davis Dam",
      "Watercourse": "Colorado River",
      "Project": {
        "Organization": "Parker-Davis",
        "Year": 1942
      }
    },
    "Location": {
      "County": "Mohave (AZ), Clark (NV)",
      "Latitude": 35.1967,
      "Longitude": -114.5683,
      "State": "Arizona and Nevada"
    }
  },
  {
    "Dimensions": {
      "Crest Elevation": 5340.0,
      "Crest Length": 749.0,
      "Structural Height": 165.0
    },
    "Identity": {
      "Name": "Deadwood Dam",
      "Watercourse": "Deadwood River",
      "Project": {
        "Organization": "Boise",
        "Year": 1929
      }
    },
    "Location": {
      "County": "Valley",
      "Latitude": 44.2932322,
      "Longitude": -115.6459458,
      "State": "Idaho"
    }
  },
  {
    "Dimensions": {
      "Crest Elevation": 4309.0,
      "Crest Length": 13000.0,
      "Structural Height": 14.0
    },
    "Identity": {
      "Name": "Deaver Dam",
      "Watercourse": "Offstream",
      "Project": {
        "Organization": "Shoshone",
        "Year": 1918
      }
    },
    "Location": {
      "County": "Park",
      "Latitude": 44.901,
      "Longitude": -108.63707,
      "State": "Wyoming"
    }
  },
  {
    "Dimensions": {
      "Crest Elevation": 5425.0,
      "Crest Length": 1304.0,
      "Structural Height": 235.0
    },
    "Identity": {
      "Name": "Deer Creek Dam",
      "Watercourse": "Provo River",
      "Project": {
        "Organization": "Provo River",
        "Year": 1938
      }
    },
    "Location": {
      "County": "Wasatch",
      "Latitude": 40.406667,
      "Longitude": -111.527,
      "State": "Utah"
    }
  },
  {
    "Dimensions": {
      "Crest Elevation": 2536.0,
      "Crest Length": 3806.0,
      "Structural Height": 132.17
    },
    "Identity": {
      "Name": "Deer Flat East Dike Dam",
      "Watercourse": "Offstream Storage",
      "Project": {
        "Organization": "Boise",
        "Year": 1906
      }
    },
    "Location": {
      "County": "Valley",
      "Latitude": 43.515568,
      "Longitude": -116.589317,
      "State": "Idaho"
    }
  },
  {
    "Dimensions": {
      "Crest Elevation": 2539.0,
      "Crest Length": 7270.0,
      "Structural Height": 49.0
    },
    "Identity": {
      "Name": "Deer Flat Lower Embankment",
      "Watercourse": "Offstream Storage",
      "Project": {
        "Organization": "Boise",
        "Year": 1906
      }
    },
    "Location": {
      "County": "Canyon",
      "Latitude": 43.58247,
      "Longitude": -116.73703,
      "State": "Idaho"
    }
  },
  {
    "Dimensions": {
      "Crest Elevation": 2536.0,
      "Crest Length": 750.0,
      "Structural Height": 26.0
    },
    "Identity": {
      "Name": "Deer Flat Middle Embankment",
      "Watercourse": "Offstream Storage",
      "Project": {
        "Organization": "Boise",
        "Year": 1906
      }
    },
    "Location": {
      "County": "Canyon",
      "Latitude": 43.595746,
      "Longitude": -116.7178916,
      "State": "Idaho"
    }
  },
  {
    "Dimensions": {
      "Crest Elevation": 2538.4,
      "Crest Length": 4164.0,
      "Structural Height": 73.0
    },
    "Identity": {
      "Name": "Deer Flat Upper Embankment",
      "Watercourse": "Offstream Storage",
      "Project": {
        "Organization": "Boise",
        "Year": 1906
      }
    },
    "Location": {
      "County": "Canyon",
      "Latitude": 43.56007,
      "Longitude": -116.6543,
      "State": "Idaho"
    }
  },
  {
    "Dimensions": {
      "Crest Elevation": 5958.0,
      "Crest Length": 1125.0,
      "Structural Height": 171.0
    },
    "Identity": {
      "Name": "Deerfield Dam",
      "Watercourse": "Castle Creek",
      "Project": {
        "Organization": "Rapid Valley",
        "Year": 1942
      }
    },
    "Location": {
      "County": "Pennington",
      "Latitude": 44.03,
      "Longitude": -103.7867,
      "State": "South Dakota"
    }
  },
  {
    "Dimensions": {
      "Crest Elevation": 4219.16,
      "Crest Length": 1331.0,
      "Structural Height": 31.0
    },
    "Identity": {
      "Name": "Derby Diversion Dam",
      "Watercourse": "Truckee Rier",
      "Project": {
        "Organization": "Newlands",
        "Year": 1905
      }
    },
    "Location": {
      "County": "Storey, Washoe",
      "Latitude": 36.27807901986153,
      "Longitude": -97.50189279297881,
      "State": "Nevada"
    }
  },
  {
    "Dimensions": {
      "Crest Elevation": 2436.6,
      "Crest Length": 2275.0,
      "Structural Height": 62.0
    },
    "Identity": {
      "Name": "Dickinson Dam",
      "Watercourse": "Heart River",
      "Project": {
        "Organization": "PSMBP-Dickinson",
        "Year": 1950
      }
    },
    "Location": {
      "County": "Stark",
      "Latitude": 46.8697,
      "Longitude": -102.8269,
      "State": "North Dakota"
    }
  },
  {
    "Dimensions": {
      "Crest Elevation": 5500.0,
      "Crest Length": 90.0,
      "Structural Height": 35.0
    },
    "Identity": {
      "Name": "Dille Diversion Dam",
      "Watercourse": "Big Thompson River",
      "Project": {
        "Organization": "Colorado-Big Thompson",
        "Year": 1950
      }
    },
    "Location": {
      "County": "Larimer",
      "Latitude": 40.4041,
      "Longitude": -105.14096,
      "State": "Colorado"
    }
  },
  {
    "Dimensions": {
      "Crest Elevation": 5443.0,
      "Crest Length": 1840.0,
      "Structural Height": 155.0
    },
    "Identity": {
      "Name": "Dixon Canyon Dam",
      "Watercourse": "Offstream Storage",
      "Project": {
        "Organization": "Colorado-Big Thompson",
        "Year": 1946
      }
    },
    "Location": {
      "County": "Larimer",
      "Latitude": 40.5533,
      "Longitude": -105.14,
      "State": "Colorado"
    }
  },
  {
    "Dimensions": {
      "Crest Elevation": 2280.0,
      "Crest Length": 8154.0,
      "Structural Height": 26.0
    },
    "Identity": {
      "Name": "Dodson Diversion Dam",
      "Watercourse": "Milk River",
      "Project": {
        "Organization": "Milk River",
        "Year": 1910
      }
    },
    "Location": {
      "County": "Phillips",
      "Latitude": 48.4121,
      "Longitude": -108.3077,
      "State": "Montana"
    }
  },
  {
    "Dimensions": {
      "Crest Elevation": 4141.1,
      "Crest Length": 2784.18,
      "Structural Height": 132.17
    },
    "Identity": {
      "Name": "Dressler Diversion Dam",
      "Watercourse": "Unknown",
      "Project": {
        "Organization": "Washoe",
        "Year": 0
      }
    },
    "Location": {
      "County": "Unknown",
      "Latitude": 36.27807901986153,
      "Longitude": -97.50189279297881,
      "State": "Nevada"
    }
  },
  {
    "Dimensions": {
      "Crest Elevation": 5619.5,
      "Crest Length": 36.0,
      "Structural Height": 13.0
    },
    "Identity": {
      "Name": "Dry Creek Diversion Dam",
      "Watercourse": "Dry Creek",
      "Project": {
        "Organization": "Fruitgrowers",
        "Year": 1940
      }
    },
    "Location": {
      "County": "Delta",
      "Latitude": 36.27807901986153,
      "Longitude": -97.50189279297881,
      "State": "Colorado"
    }
  },
  {
    "Dimensions": {
      "Crest Elevation": 1580.0,
      "Crest Length": 9800.0,
      "Structural Height": 123.0
    },
    "Identity": {
      "Name": "Dry Falls Dam",
      "Watercourse": "Offstream Storage",
      "Project": {
        "Organization": "Columbia Basin",
        "Year": 1946
      }
    },
    "Location": {
      "County": "Grant",
      "Latitude": 47.622595,
      "Longitude": -119.31787,
      "State": "Washington"
    }
  },
  {
    "Dimensions": {
      "Crest Elevation": 3996.0,
      "Crest Length": 255.0,
      "Structural Height": 14.5
    },
    "Identity": {
      "Name": "Dry Spotted Tail Diversion Dam",
      "Watercourse": "Dry Spotted Tail Creek",
      "Project": {
        "Organization": "North Platte",
        "Year": 1954
      }
    },
    "Location": {
      "County": "Scotts Bluff",
      "Latitude": 41.93825,
      "Longitude": -103.92492,
      "State": "Nebraska"
    }
  },
  {
    "Dimensions": {
      "Crest Elevation": 3873.3,
      "Crest Length": 2784.18,
      "Structural Height": 12.6
    },
    "Identity": {
      "Name": "Dunlap Diversion Dam",
      "Watercourse": "Niobrara",
      "Project": {
        "Organization": "Mirage Flats",
        "Year": 1945
      }
    },
    "Location": {
      "County": "Dawes",
      "Latitude": 42.46225,
      "Longitude": -102.92388,
      "State": "Nebraska"
    }
  },
  {
    "Dimensions": {
      "Crest Elevation": 5715.0,
      "Crest Length": 436.0,
      "Structural Height": 259.8
    },
    "Identity": {
      "Name": "East Canyon Dam",
      "Watercourse": "East Canyon Creek",
      "Project": {
        "Organization": "Weber Basin",
        "Year": 1964
      }
    },
    "Location": {
      "County": "Morgan",
      "Latitude": 40.920533533014265,
      "Longitude": -111.60085916519165,
      "State": "Utah"
    }
  },
  {
    "Dimensions": {
      "Crest Elevation": 1198.68,
      "Crest Length": 266.0,
      "Structural Height": 139.0
    },
    "Identity": {
      "Name": "East Park Dam",
      "Watercourse": "Little Stony Creek",
      "Project": {
        "Organization": "Orland",
        "Year": 1908
      }
    },
    "Location": {
      "County": "Colusa",
      "Latitude": 39.3567,
      "Longitude": -122.515,
      "State": "California"
    }
  },
  {
    "Dimensions": {
      "Crest Elevation": 8265.0,
      "Crest Length": 245.0,
      "Structural Height": 76.0
    },
    "Identity": {
      "Name": "East Portal Diversion Dam",
      "Watercourse": "Wind River",
      "Project": {
        "Organization": "Colorado-Big Thompson",
        "Year": 1947
      }
    },
    "Location": {
      "County": "Larimer",
      "Latitude": 40.32788,
      "Longitude": -105.57857,
      "State": "Colorado"
    }
  },
  {
    "Dimensions": {
      "Crest Elevation": 2184.5,
      "Crest Length": 248.0,
      "Structural Height": 66.0
    },
    "Identity": {
      "Name": "Easton Diversion Dam",
      "Watercourse": "Yakima River",
      "Project": {
        "Organization": "Yakima",
        "Year": 1928
      }
    },
    "Location": {
      "County": "Kittitas",
      "Latitude": 47.24154,
      "Longitude": -121.1880397,
      "State": "Washington"
    }
  },
  {
    "Dimensions": {
      "Crest Elevation": 5570.0,
      "Crest Length": 1887.0,
      "Structural Height": 158.0
    },
    "Identity": {
      "Name": "Echo Dam",
      "Watercourse": "Weber Basin",
      "Project": {
        "Organization": "Weber Basin",
        "Year": 1927
      }
    },
    "Location": {
      "County": "Unknown",
      "Latitude": 40.96486345371011,
      "Longitude": -111.4319658279419,
      "State": "Utah"
    }
  },
  {
    "Dimensions": {
      "Crest Elevation": 6720.0,
      "Crest Length": 3500.0,
      "Structural Height": 27.0
    },
    "Identity": {
      "Name": "Eden Dam",
      "Watercourse": "OS Little Sandy Creek",
      "Project": {
        "Organization": "Eden",
        "Year": 1910
      }
    },
    "Location": {
      "County": "Sweetwater",
      "Latitude": 42.218125247841755,
      "Longitude": -109.3665361404419,
      "State": "Wyoming"
    }
  },
  {
    "Dimensions": {
      "Crest Elevation": 6914.5,
      "Crest Length": 1326.0,
      "Structural Height": 229.5
    },
    "Identity": {
      "Name": "El Vado Dam",
      "Watercourse": "Rio chama",
      "Project": {
        "Organization": "Middle Rio Grande",
        "Year": 1933
      }
    },
    "Location": {
      "County": "Unknown",
      "Latitude": 36.594030173904585,
      "Longitude": -106.7325210571289,
      "State": "New Mexico"
    }
  },
  {
    "Dimensions": {
      "Crest Elevation": 4414.0,
      "Crest Length": 1674.0,
      "Structural Height": 301.0
    },
    "Identity": {
      "Name": "Elephant Butte Dam",
      "Watercourse": "Rio Grande",
      "Project": {
        "Organization": "Rio Grande",
        "Year": 1912
      }
    },
    "Location": {
      "County": "Sierra",
      "Latitude": 33.15348719243569,
      "Longitude": -107.19117879867554,
      "State": "New Mexico"
    }
  },
  {
    "Dimensions": {
      "Crest Elevation": 2254.0,
      "Crest Length": 4750.0,
      "Structural Height": 204.0
    },
    "Identity": {
      "Name": "Emigrant Dam",
      "Watercourse": "Emigrant Creek",
      "Project": {
        "Organization": "Rogue River Basin",
        "Year": 1924
      }
    },
    "Location": {
      "County": "Jackson",
      "Latitude": 42.16206,
      "Longitude": -122.605233,
      "State": "Oregon"
    }
  },
  {
    "Dimensions": {
      "Crest Elevation": 3137.5,
      "Crest Length": 2603.0,
      "Structural Height": 134.0
    },
    "Identity": {
      "Name": "Enders Dam",
      "Watercourse": "Frenchman River",
      "Project": {
        "Organization": "PSMBP-Frenchman-Cambridge",
        "Year": 1947
      }
    },
    "Location": {
      "County": "Chase",
      "Latitude": 40.4208,
      "Longitude": -101.5175,
      "State": "Nebraska"
    }
  },
  {
    "Dimensions": {
      "Crest Elevation": 4649.0,
      "Crest Length": 960.0,
      "Structural Height": 50.0
    },
    "Identity": {
      "Name": "Fish Lake Dam",
      "Watercourse": "North Fork Little Butte Creek",
      "Project": {
        "Organization": "Rogue River Basin",
        "Year": 1902
      }
    },
    "Location": {
      "County": "Jackson",
      "Latitude": 42.3781,
      "Longitude": -122.348,
      "State": "Oregon"
    }
  },
  {
    "Dimensions": {
      "Crest Elevation": 6047.0,
      "Crest Length": 1285.0,
      "Structural Height": 502.0
    },
    "Identity": {
      "Name": "Flaming Gorge Dam",
      "Watercourse": "Green River",
      "Project": {
        "Organization": "Colorado River Storage",
        "Year": 1958
      }
    },
    "Location": {
      "County": "Daggett",
      "Latitude": 40.91499222778669,
      "Longitude": -109.42193448543549,
      "State": "Utah"
    }
  },
  {
    "Dimensions": {
      "Crest Elevation": 5486.0,
      "Crest Length": 1725.0,
      "Structural Height": 86.0
    },
    "Identity": {
      "Name": "Flatiron Afterbay Dam",
      "Watercourse": "Chimney Hollow Creek",
      "Project": {
        "Organization": "Colorado-Big Thompson",
        "Year": 1951
      }
    },
    "Location": {
      "County": "Larimer",
      "Latitude": 40.3683,
      "Longitude": -105.2233,
      "State": "Colorado"
    }
  },
  {
    "Dimensions": {
      "Crest Elevation": 480.5,
      "Crest Length": 1400.0,
      "Structural Height": 340.0
    },
    "Identity": {
      "Name": "Folsom Dam",
      "Watercourse": "American River",
      "Project": {
        "Organization": "CVP-Auburn-Folsom",
        "Year": 1948
      }
    },
    "Location": {
      "County": "Sacramento",
      "Latitude": 38.7083,
      "Longitude": -121.1528,
      "State": "California"
    }
  },
  {
    "Dimensions": {
      "Crest Elevation": 6519.0,
      "Crest Length": 5421.0,
      "Structural Height": 139.0
    },
    "Identity": {
      "Name": "Fontenelle Dam",
      "Watercourse": "Green River",
      "Project": {
        "Organization": "Seedskadee",
        "Year": 1961
      }
    },
    "Location": {
      "County": "Lincoln. Sweetwater",
      "Latitude": 42.0283,
      "Longitude": -110.0606,
      "State": "Wyoming"
    }
  },
  {
    "Dimensions": {
      "Crest Elevation": 1380.0,
      "Crest Length": 9900.0,
      "Structural Height": 122.0
    },
    "Identity": {
      "Name": "Fort Cobb Dam",
      "Watercourse": "Cobb Creek",
      "Project": {
        "Organization": "Washita Basin",
        "Year": 1958
      }
    },
    "Location": {
      "County": "Caddo",
      "Latitude": 35.1667,
      "Longitude": -98.45,
      "State": "Oklahoma"
    }
  },
  {
    "Dimensions": {
      "Crest Elevation": 1697.0,
      "Crest Length": 18130.0,
      "Structural Height": 142.0
    },
    "Identity": {
      "Name": "Foss Dam",
      "Watercourse": "Washita River",
      "Project": {
        "Organization": "Washita basin",
        "Year": 1958
      }
    },
    "Location": {
      "County": "Caddo",
      "Latitude": 35.55,
      "Longitude": -99.1833,
      "State": "Oklahoma"
    }
  },
  {
    "Dimensions": {
      "Crest Elevation": 2170.0,
      "Crest Length": 1150.0,
      "Structural Height": 74.0
    },
    "Identity": {
      "Name": "French Canyon Dam",
      "Watercourse": "Cowiche Creek",
      "Project": {
        "Organization": "Yakima",
        "Year": 1983
      }
    },
    "Location": {
      "County": "Yakima",
      "Latitude": 46.7114132,
      "Longitude": -120.7922959,
      "State": "Washington"
    }
  },
  {
    "Dimensions": {
      "Crest Elevation": 2596.1,
      "Crest Length": 2070.0,
      "Structural Height": 110.0
    },
    "Identity": {
      "Name": "Fresno Dam",
      "Watercourse": "Milk River",
      "Project": {
        "Organization": "Milk River",
        "Year": 1937
      }
    },
    "Location": {
      "County": "County Hill",
      "Latitude": 48.6019,
      "Longitude": -109.9456,
      "State": "Montana"
    }
  },
  {
    "Dimensions": {
      "Crest Elevation": 581.25,
      "Crest Length": 3488.0,
      "Structural Height": 319.0
    },
    "Identity": {
      "Name": "Friant Dam",
      "Watercourse": "San Joaquin River",
      "Project": {
        "Organization": "CVP-Friant",
        "Year": 1939
      }
    },
    "Location": {
      "County": "Fresno",
      "Latitude": 36.27807901986153,
      "Longitude": -97.50189279297881,
      "State": "California"
    }
  },
  {
    "Dimensions": {
      "Crest Elevation": 5493.0,
      "Crest Length": 1520.0,
      "Structural Height": 55.0
    },
    "Identity": {
      "Name": "Fruitgrowers Dam",
      "Watercourse": "Alfalfa Run",
      "Project": {
        "Organization": "Fruitgrowers",
        "Year": 1938
      }
    },
    "Location": {
      "County": "Delta",
      "Latitude": 38.826669923445486,
      "Longitude": -107.9545783996582,
      "State": "Colorado"
    }
  },
  {
    "Dimensions": {
      "Crest Elevation": 9961.9,
      "Crest Length": 25.0,
      "Structural Height": 9.0
    },
    "Identity": {
      "Name": "Fryingpan Diversion Dam",
      "Watercourse": "Fryingpan River",
      "Project": {
        "Organization": "Fryingpan-Arkansas",
        "Year": 1965
      }
    },
    "Location": {
      "County": "Pitkin",
      "Latitude": 39.14447,
      "Longitude": -106.3146,
      "State": "Colorado"
    }
  },
  {
    "Dimensions": {
      "Crest Elevation": 4141.1,
      "Crest Length": 1460.0,
      "Structural Height": 80.0
    },
    "Identity": {
      "Name": "Funks Dam",
      "Watercourse": "Funks Creek",
      "Project": {
        "Organization": "CVP-Sacramento Canals",
        "Year": 19
      }
    },
    "Location": {
      "County": "Colusa",
      "Latitude": 36.27807901986153,
      "Longitude": -97.50189279297881,
      "State": "California"
    }
  },
  {
    "Dimensions": {
      "Crest Elevation": 5170.0,
      "Crest Length": 75.0,
      "Structural Height": 8.0
    },
    "Identity": {
      "Name": "Garnet Diversion Dam",
      "Watercourse": "Uncompahgre River",
      "Project": {
        "Organization": "Uncompahgre",
        "Year": 0
      }
    },
    "Location": {
      "County": "Delta",
      "Latitude": 36.27807901986153,
      "Longitude": -97.50189279297881,
      "State": "Colorado"
    }
  },
  {
    "Dimensions": {
      "Crest Elevation": 4841.9,
      "Crest Length": 485.0,
      "Structural Height": 88.0
    },
    "Identity": {
      "Name": "Gerber Dam",
      "Watercourse": "Miller Crek",
      "Project": {
        "Organization": "Klamath",
        "Year": 1924
      }
    },
    "Location": {
      "County": "Klamath",
      "Latitude": 42.2017,
      "Longitude": -121.1283,
      "State": "Oregon"
    }
  },
  {
    "Dimensions": {
      "Crest Elevation": 4725.5,
      "Crest Length": 960.0,
      "Structural Height": 199.0
    },
    "Identity": {
      "Name": "Gibson Dam",
      "Watercourse": "North Fork of Sun River",
      "Project": {
        "Organization": "Sun River",
        "Year": 1926
      }
    },
    "Location": {
      "County": "Teton, Lewis and Clark",
      "Latitude": 47.6013,
      "Longitude": -112.7614,
      "State": "Montana"
    }
  },
  {
    "Dimensions": {
      "Crest Elevation": 402.0,
      "Crest Length": 2784.18,
      "Structural Height": 135.0
    },
    "Identity": {
      "Name": "Glen Anne Dam",
      "Watercourse": "WE of Glen Anne Canyon",
      "Project": {
        "Organization": "Cachuma",
        "Year": 1950
      }
    },
    "Location": {
      "County": "Santa Barbara",
      "Latitude": 34.4708,
      "Longitude": -119.9125,
      "State": "California"
    }
  },
  {
    "Dimensions": {
      "Crest Elevation": 3715.0,
      "Crest Length": 1560.0,
      "Structural Height": 710.0
    },
    "Identity": {
      "Name": "Glen Canyon Dam",
      "Watercourse": "Colorado River Storage",
      "Project": {
        "Organization": "Colorado River Storage",
        "Year": 1956
      }
    },
    "Location": {
      "County": "Coconino",
      "Latitude": 36.93754412114758,
      "Longitude": -111.4837646484375,
      "State": "Arizona"
    }
  },
  {
    "Dimensions": {
      "Crest Elevation": 1500.0,
      "Crest Length": 15275.0,
      "Structural Height": 142.0
    },
    "Identity": {
      "Name": "Glen Elder Dam",
      "Watercourse": "Solomon River",
      "Project": {
        "Organization": "PSMBP - Glen Elder",
        "Year": 1963
      }
    },
    "Location": {
      "County": "Mitchell",
      "Latitude": 39.4967,
      "Longitude": -98.3133,
      "State": "Kansas"
    }
  },
  {
    "Dimensions": {
      "Crest Elevation": 4675.0,
      "Crest Length": 2784.18,
      "Structural Height": 190.0
    },
    "Identity": {
      "Name": "Glendo Dam",
      "Watercourse": "North Platte River",
      "Project": {
        "Organization": "PSMBP-Glendo Unit",
        "Year": 1955
      }
    },
    "Location": {
      "County": "Casso",
      "Latitude": 42.4833,
      "Longitude": -104.9833,
      "State": "Wyoming"
    }
  },
  {
    "Dimensions": {
      "Crest Elevation": 8290.0,
      "Crest Length": 861.0,
      "Structural Height": 298.0
    },
    "Identity": {
      "Name": "Granby Dam",
      "Watercourse": "Colorado River",
      "Project": {
        "Organization": "Colorado-Big Thompson",
        "Year": 1941
      }
    },
    "Location": {
      "County": "Grand",
      "Latitude": 40.165,
      "Longitude": -105.8633,
      "State": "Colorado"
    }
  },
  {
    "Dimensions": {
      "Crest Elevation": 1311.1,
      "Crest Length": 5223.0,
      "Structural Height": 550.0
    },
    "Identity": {
      "Name": "Grand Coulee Dam",
      "Watercourse": "Columbia River",
      "Project": {
        "Organization": "Columbia Basin",
        "Year": 1933
      }
    },
    "Location": {
      "County": "Grant, Okanogan",
      "Latitude": 47.955,
      "Longitude": -118.9833,
      "State": "Washington"
    }
  },
  {
    "Dimensions": {
      "Crest Elevation": 4141.1,
      "Crest Length": 2784.18,
      "Structural Height": 132.17
    },
    "Identity": {
      "Name": "Granite Creek Diversion Dam",
      "Watercourse": "Unknown",
      "Project": {
        "Organization": "Fryingpan-Arkansas",
        "Year": 0
      }
    },
    "Location": {
      "County": "Unknown",
      "Latitude": 39.15397,
      "Longitude": -106.33482,
      "State": "Colorado"
    }
  },
  {
    "Dimensions": {
      "Crest Elevation": 1310.0,
      "Crest Length": 1128.0,
      "Structural Height": 29.0
    },
    "Identity": {
      "Name": "Granite Reef Diversion Dam",
      "Watercourse": "Salt River",
      "Project": {
        "Organization": "Salt River",
        "Year": 1906
      }
    },
    "Location": {
      "County": "Maricopa",
      "Latitude": 33.513233,
      "Longitude": -111.69228,
      "State": "Arizona"
    }
  },
  {
    "Dimensions": {
      "Crest Elevation": 7218.0,
      "Crest Length": 1170.0,
      "Structural Height": 118.0
    },
    "Identity": {
      "Name": "Grassy Lake Dam",
      "Watercourse": "Grassy Creek",
      "Project": {
        "Organization": "Minidoka",
        "Year": 1937
      }
    },
    "Location": {
      "County": "Teton",
      "Latitude": 44.13,
      "Longitude": -110.8183,
      "State": "Wyoming"
    }
  },
  {
    "Dimensions": {
      "Crest Elevation": 5338.0,
      "Crest Length": 650.0,
      "Structural Height": 36.0
    },
    "Identity": {
      "Name": "Gray Reef Dam",
      "Watercourse": "North Platte River",
      "Project": {
        "Organization": "PSMBP-Glendo Unit",
        "Year": 1959
      }
    },
    "Location": {
      "County": "Natrona",
      "Latitude": 42.56529,
      "Longitude": -106.7017,
      "State": "Wyoming"
    }
  },
  {
    "Dimensions": {
      "Crest Elevation": 7960.0,
      "Crest Length": 1150.0,
      "Structural Height": 309.0
    },
    "Identity": {
      "Name": "Green Mountain Dam",
      "Watercourse": "Blue River",
      "Project": {
        "Organization": "Colorado-Big Thompson",
        "Year": 1938
      }
    },
    "Location": {
      "County": "Summit",
      "Latitude": 39.8783,
      "Longitude": -106.33,
      "State": "Colorado"
    }
  },
  {
    "Dimensions": {
      "Crest Elevation": 4430.0,
      "Crest Length": 560.0,
      "Structural Height": 135.0
    },
    "Identity": {
      "Name": "Guernsey Dam",
      "Watercourse": "North Platte River",
      "Project": {
        "Organization": "North Platte",
        "Year": 1925
      }
    },
    "Location": {
      "County": "Platte",
      "Latitude": 42.2903,
      "Longitude": -104.7631,
      "State": "Wyoming"
    }
  },
  {
    "Dimensions": {
      "Crest Elevation": 9715.5,
      "Crest Length": 50.0,
      "Structural Height": 15.0
    },
    "Identity": {
      "Name": "Halfmoon Diversion Dam",
      "Watercourse": "Halfmoon Creek",
      "Project": {
        "Organization": "Fryingpan-Arkansas",
        "Year": 1977
      }
    },
    "Location": {
      "County": "Lake",
      "Latitude": 39.18573,
      "Longitude": -106.38352,
      "State": "Colorado"
    }
  },
  {
    "Dimensions": {
      "Crest Elevation": 4190.75,
      "Crest Length": 250.0,
      "Structural Height": 8.25
    },
    "Identity": {
      "Name": "Hanover Diversion Dam",
      "Watercourse": "Bighorn river",
      "Project": {
        "Organization": "PSMBP-Hanover-Bluff",
        "Year": 1910
      }
    },
    "Location": {
      "County": "Washakie",
      "Latitude": 43.95874,
      "Longitude": -108.00087,
      "State": "Wyoming"
    }
  },
  {
    "Dimensions": {
      "Crest Elevation": 2853.0,
      "Crest Length": 1200.0,
      "Structural Height": 105.0
    },
    "Identity": {
      "Name": "Haystack Dam",
      "Watercourse": "Off stream - unnamed internittent creek",
      "Project": {
        "Organization": "Deschutes",
        "Year": 1956
      }
    },
    "Location": {
      "County": "Cook, Deschutes, Jefferson",
      "Latitude": 44.4991378,
      "Longitude": -121.15525,
      "State": "Oregon"
    }
  },
  {
    "Dimensions": {
      "Crest Elevation": 2124.0,
      "Crest Length": 1850.0,
      "Structural Height": 142.0
    },
    "Identity": {
      "Name": "Heart Butte Dam",
      "Watercourse": "Heart River",
      "Project": {
        "Organization": "PSMBP-Heart Butte",
        "Year": 1948
      }
    },
    "Location": {
      "County": "Grant",
      "Latitude": 46.5967,
      "Longitude": -101.8167,
      "State": "North Dakota"
    }
  },
  {
    "Dimensions": {
      "Crest Elevation": 3828.0,
      "Crest Length": 2650.0,
      "Structural Height": 94.0
    },
    "Identity": {
      "Name": "Helena Valley Dam",
      "Watercourse": "Tenmile Creek Tributary",
      "Project": {
        "Organization": "Helena Valley Unit, Pick-Sloan Missouri Basin Program",
        "Year": 1957
      }
    },
    "Location": {
      "County": "Lewis and Clark",
      "Latitude": 46.64182,
      "Longitude": -111.883233,
      "State": "Montana"
    }
  },
  {
    "Dimensions": {
      "Crest Elevation": 7199.0,
      "Crest Length": 1220.0,
      "Structural Height": 269.0
    },
    "Identity": {
      "Name": "Heron Dam",
      "Watercourse": "Willow Creek",
      "Project": {
        "Organization": "San Juan-Chama",
        "Year": 1967
      }
    },
    "Location": {
      "County": "Rio Arriba",
      "Latitude": 36.66573390859443,
      "Longitude": -106.70548439025879,
      "State": "New Mexico"
    }
  },
  {
    "Dimensions": {
      "Crest Elevation": 1232.0,
      "Crest Length": 1244.0,
      "Structural Height": 726.4
    },
    "Identity": {
      "Name": "Hoover Dam",
      "Watercourse": "Colorado River",
      "Project": {
        "Organization": "Boulder Canyon",
        "Year": 1931
      }
    },
    "Location": {
      "County": "Clark (NV), Mohave (AZ)",
      "Latitude": 36.0163,
      "Longitude": -114.7372,
      "State": "Nevada and Arizona"
    }
  },
  {
    "Dimensions": {
      "Crest Elevation": 4122.0,
      "Crest Length": 720.0,
      "Structural Height": 17.0
    },
    "Identity": {
      "Name": "Horse Creek Diversion Dam",
      "Watercourse": "Horse Creek",
      "Project": {
        "Organization": "North Platte",
        "Year": 1923
      }
    },
    "Location": {
      "County": "Goshen",
      "Latitude": 41.98356,
      "Longitude": -104.060008,
      "State": "Wyoming"
    }
  },
  {
    "Dimensions": {
      "Crest Elevation": 1915.0,
      "Crest Length": 660.0,
      "Structural Height": 305.0
    },
    "Identity": {
      "Name": "Horse Mesa Dam",
      "Watercourse": "Salt River",
      "Project": {
        "Organization": "Salt River",
        "Year": 1924
      }
    },
    "Location": {
      "County": "Maricopa",
      "Latitude": 33.5908,
      "Longitude": -111.3438,
      "State": "Arizona"
    }
  },
  {
    "Dimensions": {
      "Crest Elevation": 2052.0,
      "Crest Length": 1652.0,
      "Structural Height": 202.0
    },
    "Identity": {
      "Name": "Horseshoe Dam",
      "Watercourse": "Verde River",
      "Project": {
        "Organization": "Salt River",
        "Year": 1944
      }
    },
    "Location": {
      "County": "Maricopa",
      "Latitude": 33.9834,
      "Longitude": -111.708939,
      "State": "Arizona"
    }
  },
  {
    "Dimensions": {
      "Crest Elevation": 5443.0,
      "Crest Length": 1840.0,
      "Structural Height": 155.0
    },
    "Identity": {
      "Name": "Horsetooth Dam",
      "Watercourse": "Offstream Storage",
      "Project": {
        "Organization": "Colorado-Big Thompson",
        "Year": 1946
      }
    },
    "Location": {
      "County": "Larimer",
      "Latitude": 40.6,
      "Longitude": -105.1683,
      "State": "Colorado"
    }
  },
  {
    "Dimensions": {
      "Crest Elevation": 4539.0,
      "Crest Length": 1040.0,
      "Structural Height": 100.0
    },
    "Identity": {
      "Name": "Howard Prairie Dam",
      "Watercourse": "Jenny Creek",
      "Project": {
        "Organization": "Rogue River Basin",
        "Year": 1957
      }
    },
    "Location": {
      "County": "Unknown",
      "Latitude": 42.2168,
      "Longitude": -122.377,
      "State": "Oregon"
    }
  },
  {
    "Dimensions": {
      "Crest Elevation": 2780.0,
      "Crest Length": 2784.18,
      "Structural Height": 23.0
    },
    "Identity": {
      "Name": "Hubbard Dam",
      "Watercourse": "Offstream Storage",
      "Project": {
        "Organization": "Boise",
        "Year": 1902
      }
    },
    "Location": {
      "County": "Ada",
      "Latitude": 43.5123,
      "Longitude": -116.3594,
      "State": "Idaho"
    }
  },
  {
    "Dimensions": {
      "Crest Elevation": 3548.0,
      "Crest Length": 2115.0,
      "Structural Height": 564.0
    },
    "Identity": {
      "Name": "Hungry Horse Dam",
      "Watercourse": "South Fork of Flathead River",
      "Project": {
        "Organization": "Hungry Horse",
        "Year": 1948
      }
    },
    "Location": {
      "County": "Flathead",
      "Latitude": 48.3413,
      "Longitude": -114.013023376,
      "State": "Montana"
    }
  },
  {
    "Dimensions": {
      "Crest Elevation": 10179.0,
      "Crest Length": 60.0,
      "Structural Height": 52.0
    },
    "Identity": {
      "Name": "Hunter Creek Diversion Dam",
      "Watercourse": "Hunter Creek",
      "Project": {
        "Organization": "Fryingpan-Arkansas",
        "Year": 1976
      }
    },
    "Location": {
      "County": "Pitkin",
      "Latitude": 39.1226,
      "Longitude": -106.4046,
      "State": "Colorado"
    }
  },
  {
    "Dimensions": {
      "Crest Elevation": 5845.0,
      "Crest Length": 2897.0,
      "Structural Height": 85.0
    },
    "Identity": {
      "Name": "Huntington North Dam",
      "Watercourse": "Huntington Creek",
      "Project": {
        "Organization": "Emery County",
        "Year": 1964
      }
    },
    "Location": {
      "County": "Emery",
      "Latitude": 39.34173234304089,
      "Longitude": -110.94749450683594,
      "State": "Utah"
    }
  },
  {
    "Dimensions": {
      "Crest Elevation": 5025.0,
      "Crest Length": 775.0,
      "Structural Height": 53.0
    },
    "Identity": {
      "Name": "Hyatt Dam",
      "Watercourse": "Keene Creek",
      "Project": {
        "Organization": "Rogue River Basin",
        "Year": 1922
      }
    },
    "Location": {
      "County": "Unknown",
      "Latitude": 42.171737,
      "Longitude": -122.46829,
      "State": "Oregon"
    }
  },
  {
    "Dimensions": {
      "Crest Elevation": 4680.0,
      "Crest Length": 540.0,
      "Structural Height": 116.0
    },
    "Identity": {
      "Name": "Hyrum Dam",
      "Watercourse": "Little Bear Water",
      "Project": {
        "Organization": "Hyrum",
        "Year": 1934
      }
    },
    "Location": {
      "County": "Cache",
      "Latitude": 41.626630764865375,
      "Longitude": -111.8717086315155,
      "State": "Utah"
    }
  },
  {
    "Dimensions": {
      "Crest Elevation": 196.25,
      "Crest Length": 3475.0,
      "Structural Height": 85.0
    },
    "Identity": {
      "Name": "Imperial Diversion Dam",
      "Watercourse": "Colorado River",
      "Project": {
        "Organization": "Boulder Canyon",
        "Year": 1936
      }
    },
    "Location": {
      "County": "Imperial, CA; Yuma, AZ",
      "Latitude": 32.8831,
      "Longitude": -114.4669,
      "State": "California and Arizona"
    }
  },
  {
    "Dimensions": {
      "Crest Elevation": 196.25,
      "Crest Length": 3475.0,
      "Structural Height": 85.0
    },
    "Identity": {
      "Name": "Imperial Diversion Dam",
      "Watercourse": "Colorado River",
      "Project": {
        "Organization": "Boulder Canyon",
        "Year": 1936
      }
    },
    "Location": {
      "County": "Imperial, CA; Yuma, AZ",
      "Latitude": 32.8831,
      "Longitude": -114.4669,
      "State": "California and Arizona"
    }
  },
  {
    "Dimensions": {
      "Crest Elevation": 196.25,
      "Crest Length": 3475.0,
      "Structural Height": 85.0
    },
    "Identity": {
      "Name": "Imperial Diversion Dam",
      "Watercourse": "Colorado River",
      "Project": {
        "Organization": "Boulder Canyon",
        "Year": 1936
      }
    },
    "Location": {
      "County": "Imperial, CA; Yuma, AZ",
      "Latitude": 32.8831,
      "Longitude": -114.4669,
      "State": "California and Arizona"
    }
  },
  {
    "Dimensions": {
      "Crest Elevation": 6312.0,
      "Crest Length": 9500.0,
      "Structural Height": 94.0
    },
    "Identity": {
      "Name": "Island Park Dam",
      "Watercourse": "Henrys Fork",
      "Project": {
        "Organization": "Minidoka",
        "Year": 1937
      }
    },
    "Location": {
      "County": "Fremont",
      "Latitude": 44.4188389,
      "Longitude": -111.396324,
      "State": "Idaho"
    }
  },
  {
    "Dimensions": {
      "Crest Elevation": 4886.6,
      "Crest Length": 674.0,
      "Structural Height": 21.0
    },
    "Identity": {
      "Name": "Isleta Diversion Dam",
      "Watercourse": "Rio Grande",
      "Project": {
        "Organization": "Middle Rio Grande",
        "Year": 1934
      }
    },
    "Location": {
      "County": "Bernalillo",
      "Latitude": 36.27807901986153,
      "Longitude": -97.50189279297881,
      "State": "New Mexico"
    }
  },
  {
    "Dimensions": {
      "Crest Elevation": 10015.25,
      "Crest Length": 83.0,
      "Structural Height": 19.75
    },
    "Identity": {
      "Name": "Ivanhoe Diversion Dam",
      "Watercourse": "Ivanhoe Creek",
      "Project": {
        "Organization": "Fryingpan-Arkansas",
        "Year": 1973
      }
    },
    "Location": {
      "County": "Pitkin",
      "Latitude": 39.17139,
      "Longitude": -106.33309,
      "State": "Colorado"
    }
  },
  {
    "Dimensions": {
      "Crest Elevation": 7831.0,
      "Crest Length": 1900.0,
      "Structural Height": 180.0
    },
    "Identity": {
      "Name": "Jackson Gulch Dam",
      "Watercourse": "Offstream",
      "Project": {
        "Organization": "Mancos",
        "Year": 1942
      }
    },
    "Location": {
      "County": "Montezuma",
      "Latitude": 37.39845994620459,
      "Longitude": -108.2740831375122,
      "State": "Colorado"
    }
  },
  {
    "Dimensions": {
      "Crest Elevation": 6774.5,
      "Crest Length": 4920.0,
      "Structural Height": 65.5
    },
    "Identity": {
      "Name": "Jackson Lake Dam",
      "Watercourse": "Snake River",
      "Project": {
        "Organization": "Minidoka",
        "Year": 1912
      }
    },
    "Location": {
      "County": "Teton",
      "Latitude": 43.8574396,
      "Longitude": -110.5899305,
      "State": "Wyoming"
    }
  },
  {
    "Dimensions": {
      "Crest Elevation": 4141.1,
      "Crest Length": 2784.18,
      "Structural Height": 132.17
    },
    "Identity": {
      "Name": "James Diversion Dam",
      "Watercourse": "James River",
      "Project": {
        "Organization": "PSMBP-James Diversion Dam",
        "Year": 1963
      }
    },
    "Location": {
      "County": "Beadle",
      "Latitude": 44.59737,
      "Longitude": -98.23891,
      "State": "South Dakota"
    }
  },
  {
    "Dimensions": {
      "Crest Elevation": 1471.0,
      "Crest Length": 1418.0,
      "Structural Height": 110.0
    },
    "Identity": {
      "Name": "Jamestown Dam",
      "Watercourse": "James River",
      "Project": {
        "Organization": "PSMBP-Jamestown",
        "Year": 1952
      }
    },
    "Location": {
      "County": "Stutsman",
      "Latitude": 46.9333,
      "Longitude": -98.71,
      "State": "North Dakota"
    }
  },
  {
    "Dimensions": {
      "Crest Elevation": 7004.0,
      "Crest Length": 750.0,
      "Structural Height": 192.0
    },
    "Identity": {
      "Name": "Joes Valley Dam",
      "Watercourse": "Seely Creek",
      "Project": {
        "Organization": "Emery County",
        "Year": 1963
      }
    },
    "Location": {
      "County": "Emery",
      "Latitude": 39.288475613983,
      "Longitude": -111.26935958862305,
      "State": "Utah"
    }
  },
  {
    "Dimensions": {
      "Crest Elevation": 4141.1,
      "Crest Length": 263.0,
      "Structural Height": 15.0
    },
    "Identity": {
      "Name": "John Franchi Diversion Dam",
      "Watercourse": "Fresno River",
      "Project": {
        "Organization": "CVP-Friant",
        "Year": 1964
      }
    },
    "Location": {
      "County": "Madera",
      "Latitude": 36.27807901986153,
      "Longitude": -97.50189279297881,
      "State": "California"
    }
  },
  {
    "Dimensions": {
      "Crest Elevation": 6185.0,
      "Crest Length": 3700.0,
      "Structural Height": 345.0
    },
    "Identity": {
      "Name": "Jordanelle Dam",
      "Watercourse": "Provo",
      "Project": {
        "Organization": "CUP - Bonneville Unit",
        "Year": 1987
      }
    },
    "Location": {
      "County": "Wasatch",
      "Latitude": 40.407287489365885,
      "Longitude": -111.52813911437988,
      "State": "Utah"
    }
  },
  {
    "Dimensions": {
      "Crest Elevation": 2268.0,
      "Crest Length": 1400.0,
      "Structural Height": 115.0
    },
    "Identity": {
      "Name": "Kachess Dam",
      "Watercourse": "Kachess River",
      "Project": {
        "Organization": "Yakima",
        "Year": 1910
      }
    },
    "Location": {
      "County": "Kittitas",
      "Latitude": 47.2646,
      "Longitude": -121.20254,
      "State": "Washington"
    }
  },
  {
    "Dimensions": {
      "Crest Elevation": 2525.0,
      "Crest Length": 6550.0,
      "Structural Height": 128.0
    },
    "Identity": {
      "Name": "Keechelus Dam",
      "Watercourse": "Yakima River",
      "Project": {
        "Organization": "Yakima",
        "Year": 1913
      }
    },
    "Location": {
      "County": "Kittitas",
      "Latitude": 47.32212,
      "Longitude": -121.34056,
      "State": "Washington"
    }
  },
  {
    "Dimensions": {
      "Crest Elevation": 4412.5,
      "Crest Length": 558.0,
      "Structural Height": 78.0
    },
    "Identity": {
      "Name": "Keene Creek Dam",
      "Watercourse": "Keene Creek",
      "Project": {
        "Organization": "Rogue River Basin",
        "Year": 1957
      }
    },
    "Location": {
      "County": "Jackson",
      "Latitude": 42.129277,
      "Longitude": -122.478911,
      "State": "Oregon"
    }
  },
  {
    "Dimensions": {
      "Crest Elevation": 2213.0,
      "Crest Length": 101.0,
      "Structural Height": 8.0
    },
    "Identity": {
      "Name": "Kent Diversion Dam",
      "Watercourse": "North Loup",
      "Project": {
        "Organization": "PSMBP-North Loup",
        "Year": 1076
      }
    },
    "Location": {
      "County": "Loup",
      "Latitude": 41.76136,
      "Longitude": -99.2678,
      "State": "Nebraska"
    }
  },
  {
    "Dimensions": {
      "Crest Elevation": 595.5,
      "Crest Length": 1046.0,
      "Structural Height": 157.0
    },
    "Identity": {
      "Name": "Keswick Dam",
      "Watercourse": "Sacramento river",
      "Project": {
        "Organization": "CVP-Shasta/Trinity",
        "Year": 1941
      }
    },
    "Location": {
      "County": "Shasta",
      "Latitude": 40.615,
      "Longitude": -122.4528,
      "State": "California"
    }
  },
  {
    "Dimensions": {
      "Crest Elevation": 4134.0,
      "Crest Length": 2784.18,
      "Structural Height": 168.0
    },
    "Identity": {
      "Name": "Keyhole Dam",
      "Watercourse": "Offstream",
      "Project": {
        "Organization": "PSMBP-Keyhole",
        "Year": 1950
      }
    },
    "Location": {
      "County": "Crook",
      "Latitude": 44.3819,
      "Longitude": -104.7792,
      "State": "Wyoming"
    }
  },
  {
    "Dimensions": {
      "Crest Elevation": 1779.0,
      "Crest Length": 960.0,
      "Structural Height": 169.0
    },
    "Identity": {
      "Name": "Kirwin Dam",
      "Watercourse": "NF Solomon Rivr",
      "Project": {
        "Organization": "PSMBP-Kirwin",
        "Year": 1952
      }
    },
    "Location": {
      "County": "Phillips",
      "Latitude": 39.65,
      "Longitude": -99.1222,
      "State": "Kansas"
    }
  },
  {
    "Dimensions": {
      "Crest Elevation": 6169.0,
      "Crest Length": 440.0,
      "Structural Height": 244.0
    },
    "Identity": {
      "Name": "Kortes Dam",
      "Watercourse": "North Platte River",
      "Project": {
        "Organization": "PSMBP-Kortes",
        "Year": 1946
      }
    },
    "Location": {
      "County": "Carbon",
      "Latitude": 42.17392,
      "Longitude": -106.881002,
      "State": "Wyoming"
    }
  },
  {
    "Dimensions": {
      "Crest Elevation": 151.0,
      "Crest Length": 4780.0,
      "Structural Height": 43.0
    },
    "Identity": {
      "Name": "Laguna Diversion Dam",
      "Watercourse": "Colorado River",
      "Project": {
        "Organization": "Yuma",
        "Year": 1905
      }
    },
    "Location": {
      "County": "Yuma, Ariz and Imperial, Calif",
      "Latitude": 32.8233,
      "Longitude": -114.4972,
      "State": "Arizona and California"
    }
  },
  {
    "Dimensions": {
      "Crest Elevation": 4174.0,
      "Crest Length": 1325.0,
      "Structural Height": 162.0
    },
    "Identity": {
      "Name": "Lahontan Dam",
      "Watercourse": "Carson River",
      "Project": {
        "Organization": "Newlands",
        "Year": 1911
      }
    },
    "Location": {
      "County": "Churchill",
      "Latitude": 36.27807901986153,
      "Longitude": -97.50189279297881,
      "State": "Nevada"
    }
  },
  {
    "Dimensions": {
      "Crest Elevation": 4192.0,
      "Crest Length": 3100.0,
      "Structural Height": 44.0
    },
    "Identity": {
      "Name": "Lake Alice No 1 Dam",
      "Watercourse": "Interstate Canal",
      "Project": {
        "Organization": "North Platte",
        "Year": 1910
      }
    },
    "Location": {
      "County": "Scotts Bluff",
      "Latitude": 41.9728,
      "Longitude": -103.6286,
      "State": "Nebraska"
    }
  },
  {
    "Dimensions": {
      "Crest Elevation": 4192.0,
      "Crest Length": 2550.0,
      "Structural Height": 33.0
    },
    "Identity": {
      "Name": "Lake Alice No 1and 1 Half Dam",
      "Watercourse": "Interstate Canal",
      "Project": {
        "Organization": "North Platte",
        "Year": 1910
      }
    },
    "Location": {
      "County": "Scotts Bluff",
      "Latitude": 41.9828,
      "Longitude": -103.597,
      "State": "Nebraska"
    }
  },
  {
    "Dimensions": {
      "Crest Elevation": 4139.5,
      "Crest Length": 750.0,
      "Structural Height": 11.0
    },
    "Identity": {
      "Name": "Lake Alice No 2 Dam",
      "Watercourse": "Lake Alice Feeder Canal",
      "Project": {
        "Organization": "North Platte",
        "Year": 1908
      }
    },
    "Location": {
      "County": "Scotts Bluff",
      "Latitude": 41.9623003,
      "Longitude": -103.57258,
      "State": "Nebraska"
    }
  },
  {
    "Dimensions": {
      "Crest Elevation": 4816.5,
      "Crest Length": 1224.0,
      "Structural Height": 116.5
    },
    "Identity": {
      "Name": "Lake Sherburne Dam",
      "Watercourse": "Swiftcurrent Creek",
      "Project": {
        "Organization": "Milk River",
        "Year": 1914
      }
    },
    "Location": {
      "County": "Glacier",
      "Latitude": 48.8285,
      "Longitude": -113.5213,
      "State": "Montana"
    }
  },
  {
    "Dimensions": {
      "Crest Elevation": 6233.2,
      "Crest Length": 109.0,
      "Structural Height": 18.2
    },
    "Identity": {
      "Name": "Lake Tahoe Dam",
      "Watercourse": "Truckee River",
      "Project": {
        "Organization": "Newlands",
        "Year": 1909
      }
    },
    "Location": {
      "County": "Placer",
      "Latitude": 36.27807901986153,
      "Longitude": -97.50189279297881,
      "State": "California"
    }
  },
  {
    "Dimensions": {
      "Crest Elevation": 567.0,
      "Crest Length": 2784.18,
      "Structural Height": 137.0
    },
    "Identity": {
      "Name": "Lauro Dam",
      "Watercourse": "Diablo Creek",
      "Project": {
        "Organization": "Cachuma",
        "Year": 1951
      }
    },
    "Location": {
      "County": "Santa Barbara",
      "Latitude": 34.4542,
      "Longitude": -119.7264,
      "State": "California"
    }
  },
  {
    "Dimensions": {
      "Crest Elevation": 8167.0,
      "Crest Length": 1360.0,
      "Structural Height": 284.0
    },
    "Identity": {
      "Name": "Lemon Dam",
      "Watercourse": "Florida River",
      "Project": {
        "Organization": "Florida",
        "Year": 1961
      }
    },
    "Location": {
      "County": "La Plata",
      "Latitude": 37.38170975228258,
      "Longitude": -107.66070485115051,
      "State": "Colorado"
    }
  },
  {
    "Dimensions": {
      "Crest Elevation": 1910.0,
      "Crest Length": 745.0,
      "Structural Height": 91.0
    },
    "Identity": {
      "Name": "Lewiston Dam",
      "Watercourse": "Trinity River",
      "Project": {
        "Organization": "CVP-Shasta/Trinity",
        "Year": 1960
      }
    },
    "Location": {
      "County": "Trinity",
      "Latitude": 36.27807901986153,
      "Longitude": -97.50189279297881,
      "State": "California"
    }
  },
  {
    "Dimensions": {
      "Crest Elevation": 10207.0,
      "Crest Length": 2784.18,
      "Structural Height": 132.17
    },
    "Identity": {
      "Name": "Lily Pad Diversion Inlet Dam",
      "Watercourse": "Ivanhoe Cr (Nast Tunnel)",
      "Project": {
        "Organization": "Fryingpan-Arkansas",
        "Year": 1970
      }
    },
    "Location": {
      "County": "Pitkin",
      "Latitude": 39.15299,
      "Longitude": -106.32115,
      "State": "Colorado"
    }
  },
  {
    "Dimensions": {
      "Crest Elevation": 4145.0,
      "Crest Length": 435.0,
      "Structural Height": 22.0
    },
    "Identity": {
      "Name": "Link River Diversion Dam",
      "Watercourse": "Unknown",
      "Project": {
        "Organization": "Unknown",
        "Year": 0
      }
    },
    "Location": {
      "County": "Unknown",
      "Latitude": 36.27807901986153,
      "Longitude": -97.50189279297881,
      "State": "Unknown"
    }
  },
  {
    "Dimensions": {
      "Crest Elevation": 6640.0,
      "Crest Length": 220.0,
      "Structural Height": 43.0
    },
    "Identity": {
      "Name": "Little Hell Creek Diversion Dam",
      "Watercourse": "Little Hell Creek",
      "Project": {
        "Organization": "Colorado-Big thompson",
        "Year": 1952
      }
    },
    "Location": {
      "County": "Larimer",
      "Latitude": 40.3636,
      "Longitude": -105.32461,
      "State": "Colorado"
    }
  },
  {
    "Dimensions": {
      "Crest Elevation": 676.0,
      "Crest Length": 2784.18,
      "Structural Height": 151.0
    },
    "Identity": {
      "Name": "Little Panoche Detention Dam",
      "Watercourse": "Little Panoche Creek",
      "Project": {
        "Organization": "Unknown",
        "Year": 0
      }
    },
    "Location": {
      "County": "Unknown",
      "Latitude": 36.27807901986153,
      "Longitude": -97.50189279297881,
      "State": "Unknown"
    }
  },
  {
    "Dimensions": {
      "Crest Elevation": 5249.0,
      "Crest Length": 3100.0,
      "Structural Height": 129.0
    },
    "Identity": {
      "Name": "Little Wood River Dam",
      "Watercourse": "Little Wood River",
      "Project": {
        "Organization": "Little Wood River",
        "Year": 1936
      }
    },
    "Location": {
      "County": "Blaine",
      "Latitude": 43.4249051,
      "Longitude": -114.0292001,
      "State": "Idaho"
    }
  },
  {
    "Dimensions": {
      "Crest Elevation": 384.0,
      "Crest Length": 1370.0,
      "Structural Height": 167.0
    },
    "Identity": {
      "Name": "Los Banos Creek Detention Dam",
      "Watercourse": "Los Banos Creek",
      "Project": {
        "Organization": "Central Valley",
        "Year": 1964
      }
    },
    "Location": {
      "County": "Merced",
      "Latitude": 36.99,
      "Longitude": -120.0317,
      "State": "California"
    }
  },
  {
    "Dimensions": {
      "Crest Elevation": 6022.0,
      "Crest Length": 1078.0,
      "Structural Height": 248.4
    },
    "Identity": {
      "Name": "Lost Creek Dam",
      "Watercourse": "Lost Creek",
      "Project": {
        "Organization": "Weber Basin",
        "Year": 1963
      }
    },
    "Location": {
      "County": "Morgan",
      "Latitude": 41.184169080205045,
      "Longitude": -111.39918923377991,
      "State": "Utah"
    }
  },
  {
    "Dimensions": {
      "Crest Elevation": 4094.5,
      "Crest Length": 300.0,
      "Structural Height": 26.0
    },
    "Identity": {
      "Name": "Lost River Diversion Dam",
      "Watercourse": "Lost River",
      "Project": {
        "Organization": "Klamath",
        "Year": 1912
      }
    },
    "Location": {
      "County": "Klamath",
      "Latitude": 36.27807901986153,
      "Longitude": -97.50189279297881,
      "State": "Oregon"
    }
  },
  {
    "Dimensions": {
      "Crest Elevation": 1616.0,
      "Crest Length": 8500.0,
      "Structural Height": 93.0
    },
    "Identity": {
      "Name": "Lovewell Dam",
      "Watercourse": "White Rock Creek",
      "Project": {
        "Organization": "PSMBP-Bostwick",
        "Year": 1955
      }
    },
    "Location": {
      "County": "Jewell",
      "Latitude": 39.885,
      "Longitude": -98.0283,
      "State": "Kansas"
    }
  },
  {
    "Dimensions": {
      "Crest Elevation": 1981.0,
      "Crest Length": 700.0,
      "Structural Height": 12.0
    },
    "Identity": {
      "Name": "Lower Yellowstone Diversion Dam",
      "Watercourse": "Yellowstone",
      "Project": {
        "Organization": "Lower Yellowstone",
        "Year": 1910
      }
    },
    "Location": {
      "County": "Dawson",
      "Latitude": 47.2801,
      "Longitude": -104.5294,
      "State": "Montana"
    }
  },
  {
    "Dimensions": {
      "Crest Elevation": 4141.1,
      "Crest Length": 2784.18,
      "Structural Height": 132.17
    },
    "Identity": {
      "Name": "Malone Diversion Dam",
      "Watercourse": "Lost River",
      "Project": {
        "Organization": "Klamath",
        "Year": 1923
      }
    },
    "Location": {
      "County": "Klamath",
      "Latitude": 36.27807901986153,
      "Longitude": -97.50189279297881,
      "State": "Oregon"
    }
  },
  {
    "Dimensions": {
      "Crest Elevation": 2903.0,
      "Crest Length": 1176.0,
      "Structural Height": 148.0
    },
    "Identity": {
      "Name": "Mann Creek Dam",
      "Watercourse": "Mann Creek",
      "Project": {
        "Organization": "Mann Creek",
        "Year": 1965
      }
    },
    "Location": {
      "County": "Washington",
      "Latitude": 44.392349,
      "Longitude": -116.895389,
      "State": "Idaho"
    }
  },
  {
    "Dimensions": {
      "Crest Elevation": 3866.0,
      "Crest Length": 1622.0,
      "Structural Height": 35.0
    },
    "Identity": {
      "Name": "Marble Bluff Dam",
      "Watercourse": "Little Truckee R.",
      "Project": {
        "Organization": "Washoe",
        "Year": 1975
      }
    },
    "Location": {
      "County": "Storey",
      "Latitude": 36.27807901986153,
      "Longitude": -97.50189279297881,
      "State": "Nevada"
    }
  },
  {
    "Dimensions": {
      "Crest Elevation": 72.0,
      "Crest Length": 1200.0,
      "Structural Height": 62.0
    },
    "Identity": {
      "Name": "Martinez Dam",
      "Watercourse": "Offstream storage",
      "Project": {
        "Organization": "CVP-Delta",
        "Year": 1946
      }
    },
    "Location": {
      "County": "Contra Costa",
      "Latitude": 38.0117,
      "Longitude": -122.11,
      "State": "California"
    }
  },
  {
    "Dimensions": {
      "Crest Elevation": 8050.0,
      "Crest Length": 820.0,
      "Structural Height": 29.0
    },
    "Identity": {
      "Name": "Marys Lake Dike Dam",
      "Watercourse": "Offstream",
      "Project": {
        "Organization": "Colorado-Big Thompson",
        "Year": 0
      }
    },
    "Location": {
      "County": "Larimer",
      "Latitude": 40.34397,
      "Longitude": -105.53351,
      "State": "Colorado"
    }
  },
  {
    "Dimensions": {
      "Crest Elevation": 4082.0,
      "Crest Length": 895.0,
      "Structural Height": 173.0
    },
    "Identity": {
      "Name": "Mason Dam",
      "Watercourse": "Powder River",
      "Project": {
        "Organization": "Baker",
        "Year": 1965
      }
    },
    "Location": {
      "County": "Baker",
      "Latitude": 44.67335287,
      "Longitude": -118.00003,
      "State": "Oregon"
    }
  },
  {
    "Dimensions": {
      "Crest Elevation": 613.5,
      "Crest Length": 30.0,
      "Structural Height": 161.0
    },
    "Identity": {
      "Name": "McGee Creek Dam",
      "Watercourse": "McGee Creek",
      "Project": {
        "Organization": "McGee Creek",
        "Year": 1981
      }
    },
    "Location": {
      "County": "Unknown",
      "Latitude": 34.3331,
      "Longitude": -95.9151,
      "State": "Oklahoma"
    }
  },
  {
    "Dimensions": {
      "Crest Elevation": 1330.0,
      "Crest Length": 2700.0,
      "Structural Height": 165.0
    },
    "Identity": {
      "Name": "McKay Dam",
      "Watercourse": "McKay Creek",
      "Project": {
        "Organization": "Umatilla Basin",
        "Year": 1923
      }
    },
    "Location": {
      "County": "Umatilla, Morrow",
      "Latitude": 45.605406,
      "Longitude": -118.7957668,
      "State": "Oregon"
    }
  },
  {
    "Dimensions": {
      "Crest Elevation": 6936.0,
      "Crest Length": 1370.0,
      "Structural Height": 295.0
    },
    "Identity": {
      "Name": "McPhee Dam",
      "Watercourse": "Dolores",
      "Project": {
        "Organization": "Dolores",
        "Year": 1983
      }
    },
    "Location": {
      "County": "Montezuma",
      "Latitude": 37.57651247047376,
      "Longitude": -108.5723876953125,
      "State": "Colorado"
    }
  },
  {
    "Dimensions": {
      "Crest Elevation": 2415.0,
      "Crest Length": 5665.0,
      "Structural Height": 165.0
    },
    "Identity": {
      "Name": "Medicine Creek Dam",
      "Watercourse": "Medicine Creek",
      "Project": {
        "Organization": "PSMBP-Frenchman-Cambridge",
        "Year": 1948
      }
    },
    "Location": {
      "County": "Frontier",
      "Latitude": 40.3783,
      "Longitude": -100.2167,
      "State": "Nebraska"
    }
  },
  {
    "Dimensions": {
      "Crest Elevation": 8706.0,
      "Crest Length": 3162.0,
      "Structural Height": 185.0
    },
    "Identity": {
      "Name": "Meeks Cabin Dam",
      "Watercourse": "Blacks Fork River",
      "Project": {
        "Organization": "Lyman",
        "Year": 1966
      }
    },
    "Location": {
      "County": "Unita",
      "Latitude": 41.025328864161786,
      "Longitude": -110.57979583740234,
      "State": "Wyoming"
    }
  },
  {
    "Dimensions": {
      "Crest Elevation": 2956.0,
      "Crest Length": 3222.0,
      "Structural Height": 132.17
    },
    "Identity": {
      "Name": "Merritt Dam",
      "Watercourse": "Snake River",
      "Project": {
        "Organization": "PSMBP-Ainsworth",
        "Year": 1961
      }
    },
    "Location": {
      "County": "Cherry",
      "Latitude": 42.63282,
      "Longitude": -100.86936,
      "State": "Nebraska"
    }
  },
  {
    "Dimensions": {
      "Crest Elevation": 10055.0,
      "Crest Length": 43.0,
      "Structural Height": 10.0
    },
    "Identity": {
      "Name": "Middle Cunningham Creek Diversion Dam",
      "Watercourse": "Cunningham Creek",
      "Project": {
        "Organization": "Fryingpan-Arkansas",
        "Year": 1976
      }
    },
    "Location": {
      "County": "Pitkin",
      "Latitude": 39.1945,
      "Longitude": -106.332,
      "State": "Colorado"
    }
  },
  {
    "Dimensions": {
      "Crest Elevation": 5268.0,
      "Crest Length": 663.0,
      "Structural Height": 54.0
    },
    "Identity": {
      "Name": "Midview Dam",
      "Watercourse": "Offstream",
      "Project": {
        "Organization": "Moon Lake",
        "Year": 1935
      }
    },
    "Location": {
      "County": "Duschene",
      "Latitude": 40.185283218249296,
      "Longitude": -110.16456842422485,
      "State": "Utah"
    }
  },
  {
    "Dimensions": {
      "Crest Elevation": 10190.2,
      "Crest Length": 50.0,
      "Structural Height": 12.0
    },
    "Identity": {
      "Name": "Midway Creek Diversion Dam",
      "Watercourse": "Midway Creek",
      "Project": {
        "Organization": "Fryingpan-Arkansas",
        "Year": 1976
      }
    },
    "Location": {
      "County": "Pitkin",
      "Latitude": 39.1147,
      "Longitude": -106.4123,
      "State": "Colorado"
    }
  },
  {
    "Dimensions": {
      "Crest Elevation": 4227.0,
      "Crest Length": 290.0,
      "Structural Height": 10.0
    },
    "Identity": {
      "Name": "Miller Diversion Dam",
      "Watercourse": "Miller Creek",
      "Project": {
        "Organization": "Klamath",
        "Year": 1924
      }
    },
    "Location": {
      "County": "Klamath",
      "Latitude": 36.27807901986153,
      "Longitude": -97.50189279297881,
      "State": "Oregon"
    }
  },
  {
    "Dimensions": {
      "Crest Elevation": 4140.0,
      "Crest Length": 3760.0,
      "Structural Height": 114.0
    },
    "Identity": {
      "Name": "Minatare Dam",
      "Watercourse": "Minatare Supply Canal",
      "Project": {
        "Organization": "North Platte",
        "Year": 1912
      }
    },
    "Location": {
      "County": "Scotts Bluff",
      "Latitude": 41.9183,
      "Longitude": -103.4925,
      "State": "Nebraska"
    }
  },
  {
    "Dimensions": {
      "Crest Elevation": 4250.0,
      "Crest Length": 4475.0,
      "Structural Height": 86.0
    },
    "Identity": {
      "Name": "Minidoka Dam",
      "Watercourse": "Snake River",
      "Project": {
        "Organization": "Minidoka",
        "Year": 1904
      }
    },
    "Location": {
      "County": "Minidoka & Cassia",
      "Latitude": 42.66907,
      "Longitude": -113.484177,
      "State": "Idaho"
    }
  },
  {
    "Dimensions": {
      "Crest Elevation": 456.0,
      "Crest Length": 1023.0,
      "Structural Height": 304.0
    },
    "Identity": {
      "Name": "Monticello Dam",
      "Watercourse": "Putah Creek",
      "Project": {
        "Organization": "Solano",
        "Year": 1953
      }
    },
    "Location": {
      "County": "Yolo",
      "Latitude": 38.513335,
      "Longitude": -122.104272,
      "State": "California"
    }
  },
  {
    "Dimensions": {
      "Crest Elevation": 8145.0,
      "Crest Length": 1108.0,
      "Structural Height": 101.0
    },
    "Identity": {
      "Name": "Moon Lake Dam",
      "Watercourse": "Lake Fork River",
      "Project": {
        "Organization": "Moon Lake",
        "Year": 1935
      }
    },
    "Location": {
      "County": "Duchesne",
      "Latitude": 40.560592955303996,
      "Longitude": -110.48898696899414,
      "State": "Utah"
    }
  },
  {
    "Dimensions": {
      "Crest Elevation": 10098.0,
      "Crest Length": 41.0,
      "Structural Height": 10.0
    },
    "Identity": {
      "Name": "Mormon Creek Diversion Dam",
      "Watercourse": "Mormon Creek",
      "Project": {
        "Organization": "Fryingpan-Arkansas",
        "Year": 1976
      }
    },
    "Location": {
      "County": "Pitkin",
      "Latitude": 39.21193,
      "Longitude": -106.3269,
      "State": "Colorado"
    }
  },
  {
    "Dimensions": {
      "Crest Elevation": 1666.0,
      "Crest Length": 380.0,
      "Structural Height": 224.0
    },
    "Identity": {
      "Name": "Mormon Flat Dam",
      "Watercourse": "Salt River",
      "Project": {
        "Organization": "Salt River",
        "Year": 1923
      }
    },
    "Location": {
      "County": "Maricopa",
      "Latitude": 33.5534,
      "Longitude": -111.443,
      "State": "Arizona"
    }
  },
  {
    "Dimensions": {
      "Crest Elevation": 4141.1,
      "Crest Length": 4820.0,
      "Structural Height": 110.0
    },
    "Identity": {
      "Name": "Mormon Island Auxilliary Dam",
      "Watercourse": "Blue Ravine",
      "Project": {
        "Organization": "CVP-Folsom Sly Park",
        "Year": 1956
      }
    },
    "Location": {
      "County": "Sacramento",
      "Latitude": 38.7081,
      "Longitude": -121.1222,
      "State": "California"
    }
  },
  {
    "Dimensions": {
      "Crest Elevation": 7165.0,
      "Crest Length": 724.0,
      "Structural Height": 468.0
    },
    "Identity": {
      "Name": "Morrow Point Dam",
      "Watercourse": "Gunnison River",
      "Project": {
        "Organization": "Colorado River Storage",
        "Year": 1963
      }
    },
    "Location": {
      "County": "Montrose",
      "Latitude": 38.45179852589292,
      "Longitude": -107.53812789916992,
      "State": "Colorado"
    }
  },
  {
    "Dimensions": {
      "Crest Elevation": 1423.0,
      "Crest Length": 535.0,
      "Structural Height": 133.0
    },
    "Identity": {
      "Name": "Mountain Park Dam",
      "Watercourse": "West Otter Creek",
      "Project": {
        "Organization": "Mountain Park",
        "Year": 1973
      }
    },
    "Location": {
      "County": "Kiowa",
      "Latitude": 34.7386,
      "Longitude": -98.9875,
      "State": "Oklahoma"
    }
  },
  {
    "Dimensions": {
      "Crest Elevation": 9652.0,
      "Crest Length": 2600.0,
      "Structural Height": 92.0
    },
    "Identity": {
      "Name": "Mt Elbert Forebay Dam",
      "Watercourse": "Offstream",
      "Project": {
        "Organization": "Fryingpan-Arkansas",
        "Year": 1977
      }
    },
    "Location": {
      "County": "Lake",
      "Latitude": 39.0833,
      "Longitude": -106.455,
      "State": "Colorado"
    }
  },
  {
    "Dimensions": {
      "Crest Elevation": 6840.0,
      "Crest Length": 1021.0,
      "Structural Height": 150.0
    },
    "Identity": {
      "Name": "Nambe Falls Dam",
      "Watercourse": "Rio Nambe",
      "Project": {
        "Organization": "San Juan-Chama",
        "Year": 1974
      }
    },
    "Location": {
      "County": "Sante Fe",
      "Latitude": 35.84533186008363,
      "Longitude": -105.90581059455872,
      "State": "New Mexico"
    }
  },
  {
    "Dimensions": {
      "Crest Elevation": 6108.0,
      "Crest Length": 3648.0,
      "Structural Height": 402.0
    },
    "Identity": {
      "Name": "Navajo Dam",
      "Watercourse": "San Juan River",
      "Project": {
        "Organization": "Colorado River Storage",
        "Year": 1957
      }
    },
    "Location": {
      "County": "SanJuan, Rio Arriba",
      "Latitude": 36.80236896863783,
      "Longitude": -107.61297225952148,
      "State": "New Mexico"
    }
  },
  {
    "Dimensions": {
      "Crest Elevation": 2228.0,
      "Crest Length": 9900.0,
      "Structural Height": 28.0
    },
    "Identity": {
      "Name": "Nelson Dam",
      "Watercourse": "Offstream Storage",
      "Project": {
        "Organization": "Milk River",
        "Year": 1914
      }
    },
    "Location": {
      "County": "Phillip",
      "Latitude": 48.5334,
      "Longitude": -107.5221,
      "State": "Montana"
    }
  },
  {
    "Dimensions": {
      "Crest Elevation": 1135.0,
      "Crest Length": 578.0,
      "Structural Height": 132.17
    },
    "Identity": {
      "Name": "New Melones Dam",
      "Watercourse": "Stanislaus River",
      "Project": {
        "Organization": "CVP-New Melones",
        "Year": 1966
      }
    },
    "Location": {
      "County": "Calaveras",
      "Latitude": 37.9528,
      "Longitude": -120.5167,
      "State": "California"
    }
  },
  {
    "Dimensions": {
      "Crest Elevation": 1728.0,
      "Crest Length": 4900.0,
      "Structural Height": 440.0
    },
    "Identity": {
      "Name": "New Waddell Dam",
      "Watercourse": "Agua Fria",
      "Project": {
        "Organization": "Central Arizona",
        "Year": 1987
      }
    },
    "Location": {
      "County": "Maricopa",
      "Latitude": 33.8437,
      "Longitude": -112.266,
      "State": "Arizona"
    }
  },
  {
    "Dimensions": {
      "Crest Elevation": 4781.0,
      "Crest Length": 3340.0,
      "Structural Height": 101.0
    },
    "Identity": {
      "Name": "Newton Dam",
      "Watercourse": "Clarkson Creek",
      "Project": {
        "Organization": "Newton",
        "Year": 1941
      }
    },
    "Location": {
      "County": "Cache",
      "Latitude": 41.895464674413226,
      "Longitude": -111.97385787963867,
      "State": "Utah"
    }
  },
  {
    "Dimensions": {
      "Crest Elevation": 132.0,
      "Crest Length": 1093.0,
      "Structural Height": 87.0
    },
    "Identity": {
      "Name": "Nimbus Dam",
      "Watercourse": "American River",
      "Project": {
        "Organization": "CVP-Folsom",
        "Year": 1952
      }
    },
    "Location": {
      "County": "Sacramento",
      "Latitude": 38.6367,
      "Longitude": -121.2233,
      "State": "California"
    }
  },
  {
    "Dimensions": {
      "Crest Elevation": 10170.5,
      "Crest Length": 26.0,
      "Structural Height": 13.0
    },
    "Identity": {
      "Name": "No Name Creek Diversion Dam",
      "Watercourse": "No Name Creek",
      "Project": {
        "Organization": "Fryingpan-Arkansas",
        "Year": 1976
      }
    },
    "Location": {
      "County": "Pitkin",
      "Latitude": 39.1119,
      "Longitude": -106.433,
      "State": "Colorado"
    }
  },
  {
    "Dimensions": {
      "Crest Elevation": 1071.0,
      "Crest Length": 7220.0,
      "Structural Height": 144.0
    },
    "Identity": {
      "Name": "Norman Dam",
      "Watercourse": "Little River",
      "Project": {
        "Organization": "Norman",
        "Year": 1962
      }
    },
    "Location": {
      "County": "Clevelandand Oklahoma",
      "Latitude": 35.2208,
      "Longitude": -97.2181,
      "State": "Oklahoma"
    }
  },
  {
    "Dimensions": {
      "Crest Elevation": 10087.5,
      "Crest Length": 38.6,
      "Structural Height": 132.17
    },
    "Identity": {
      "Name": "North Cunningham Creek Diversion Dam",
      "Watercourse": "Cunningham Creek",
      "Project": {
        "Organization": "Fryingpan-Arkansas",
        "Year": 1976
      }
    },
    "Location": {
      "County": "Pitkin",
      "Latitude": 39.20128,
      "Longitude": -106.32352,
      "State": "Colorado"
    }
  },
  {
    "Dimensions": {
      "Crest Elevation": 1580.0,
      "Crest Length": 1450.0,
      "Structural Height": 145.0
    },
    "Identity": {
      "Name": "North Dam",
      "Watercourse": "Offstream",
      "Project": {
        "Organization": "Columbia Basin",
        "Year": 1946
      }
    },
    "Location": {
      "County": "Grant",
      "Latitude": 47.9404295,
      "Longitude": -119.0172442,
      "State": "Washington"
    }
  },
  {
    "Dimensions": {
      "Crest Elevation": 10217.5,
      "Crest Length": 36.0,
      "Structural Height": 132.17
    },
    "Identity": {
      "Name": "North Fork Diversion Dam",
      "Watercourse": "North Fork Creek",
      "Project": {
        "Organization": "Fryingpan-Arkansas",
        "Year": 0
      }
    },
    "Location": {
      "County": "Eagle",
      "Latitude": 39.21585,
      "Longitude": -106.32362,
      "State": "Colorado"
    }
  },
  {
    "Dimensions": {
      "Crest Elevation": 1329.9,
      "Crest Length": 375.0,
      "Structural Height": 15.0
    },
    "Identity": {
      "Name": "Northside Diversion Dam",
      "Watercourse": "Stony Creek",
      "Project": {
        "Organization": "Orland",
        "Year": 1913
      }
    },
    "Location": {
      "County": "Tehama",
      "Latitude": 36.27807901986153,
      "Longitude": -97.50189279297881,
      "State": "California"
    }
  },
  {
    "Dimensions": {
      "Crest Elevation": 2347.0,
      "Crest Length": 6450.0,
      "Structural Height": 150.5
    },
    "Identity": {
      "Name": "Norton Dam",
      "Watercourse": "Prairie Dog Creek",
      "Project": {
        "Organization": "PSMBP-Almena",
        "Year": 1961
      }
    },
    "Location": {
      "County": "Norton",
      "Latitude": 39.8067,
      "Longitude": -99.935,
      "State": "Kansas"
    }
  },
  {
    "Dimensions": {
      "Crest Elevation": 233.0,
      "Crest Length": 14300.0,
      "Structural Height": 87.5
    },
    "Identity": {
      "Name": "O`Neill Dam",
      "Watercourse": "San Luis Creek",
      "Project": {
        "Organization": "Central Valley",
        "Year": 1963
      }
    },
    "Location": {
      "County": "Merced",
      "Latitude": 37.1167,
      "Longitude": -121.05,
      "State": "California"
    }
  },
  {
    "Dimensions": {
      "Crest Elevation": 1061.0,
      "Crest Length": 19000.0,
      "Structural Height": 200.0
    },
    "Identity": {
      "Name": "O`Sullivan Dam",
      "Watercourse": "Lower Crab Creek",
      "Project": {
        "Organization": "Columbia Basin",
        "Year": 1947
      }
    },
    "Location": {
      "County": "Grant",
      "Latitude": 46.9806,
      "Longitude": -119.27,
      "State": "Washington"
    }
  },
  {
    "Dimensions": {
      "Crest Elevation": 3143.0,
      "Crest Length": 1300.0,
      "Structural Height": 152.0
    },
    "Identity": {
      "Name": "Ochoco Dam",
      "Watercourse": "Ochoco Creek",
      "Project": {
        "Organization": "Crooked River",
        "Year": 1918
      }
    },
    "Location": {
      "County": "Crook",
      "Latitude": 44.29903,
      "Longitude": -120.72506,
      "State": "Oregon"
    }
  },
  {
    "Dimensions": {
      "Crest Elevation": 7481.0,
      "Crest Length": 320.0,
      "Structural Height": 70.0
    },
    "Identity": {
      "Name": "Olympus Dam",
      "Watercourse": "Big Thompson River",
      "Project": {
        "Organization": "Colorado-Big Thompson",
        "Year": 1947
      }
    },
    "Location": {
      "County": "Larimer",
      "Latitude": 40.375,
      "Longitude": -105.4883,
      "State": "Colorado"
    }
  },
  {
    "Dimensions": {
      "Crest Elevation": 460.85,
      "Crest Length": 2784.18,
      "Structural Height": 131.0
    },
    "Identity": {
      "Name": "Ortega Dam",
      "Watercourse": "Offstream Storage",
      "Project": {
        "Organization": "Cachuma",
        "Year": 1953
      }
    },
    "Location": {
      "County": "Santa Barbara",
      "Latitude": 34.4317,
      "Longitude": -119.5917,
      "State": "California"
    }
  },
  {
    "Dimensions": {
      "Crest Elevation": 2675.0,
      "Crest Length": 833.0,
      "Structural Height": 417.0
    },
    "Identity": {
      "Name": "Owyhee Dam",
      "Watercourse": "Owyhee River",
      "Project": {
        "Organization": "Owyhee",
        "Year": 1928
      }
    },
    "Location": {
      "County": "Malheur",
      "Latitude": 43.6422,
      "Longitude": -117.2430896,
      "State": "Oregon"
    }
  },
  {
    "Dimensions": {
      "Crest Elevation": 4655.0,
      "Crest Length": 2236.0,
      "Structural Height": 245.0
    },
    "Identity": {
      "Name": "Pactola Dam",
      "Watercourse": "Rapid Creek",
      "Project": {
        "Organization": "PSMBP-Rapid Valley Unit",
        "Year": 1952
      }
    },
    "Location": {
      "County": "Pennington",
      "Latitude": 44.0717,
      "Longitude": -103.4883,
      "State": "South Dakota"
    }
  },
  {
    "Dimensions": {
      "Crest Elevation": 5630.0,
      "Crest Length": 2100.0,
      "Structural Height": 270.0
    },
    "Identity": {
      "Name": "Palisades Dam",
      "Watercourse": "SF of Snake River",
      "Project": {
        "Organization": "Palisades",
        "Year": 1951
      }
    },
    "Location": {
      "County": "Bonneville",
      "Latitude": 43.332498,
      "Longitude": -111.202626,
      "State": "Idaho"
    }
  },
  {
    "Dimensions": {
      "Crest Elevation": 296.0,
      "Crest Length": 150.0,
      "Structural Height": 50.0
    },
    "Identity": {
      "Name": "Palo Verde Diversion Dam",
      "Watercourse": "Colorado River",
      "Project": {
        "Organization": "Palo Verde Diversion",
        "Year": 1957
      }
    },
    "Location": {
      "County": "La Paz, AZ; Riverside, CA",
      "Latitude": 33.7325,
      "Longitude": -114.5107,
      "State": "Arizona and California"
    }
  },
  {
    "Dimensions": {
      "Crest Elevation": 6460.0,
      "Crest Length": 770.0,
      "Structural Height": 199.0
    },
    "Identity": {
      "Name": "Paonia Dam",
      "Watercourse": "Muddy Creek",
      "Project": {
        "Organization": "Paonia",
        "Year": 1959
      }
    },
    "Location": {
      "County": "Gunnison",
      "Latitude": 38.941744639115996,
      "Longitude": -107.3532485961914,
      "State": "Colorado"
    }
  },
  {
    "Dimensions": {
      "Crest Elevation": 2401.5,
      "Crest Length": 570.0,
      "Structural Height": 20.0
    },
    "Identity": {
      "Name": "Paradise Diversion Dam",
      "Watercourse": "Milk River",
      "Project": {
        "Organization": "Milk River",
        "Year": 1966
      }
    },
    "Location": {
      "County": "Blaine",
      "Latitude": 48.5663,
      "Longitude": -109.1901,
      "State": "Montana"
    }
  },
  {
    "Dimensions": {
      "Crest Elevation": 455.0,
      "Crest Length": 856.0,
      "Structural Height": 320.0
    },
    "Identity": {
      "Name": "Parker Dam",
      "Watercourse": "Colorado River",
      "Project": {
        "Organization": "Parker-Davis",
        "Year": 1934
      }
    },
    "Location": {
      "County": "LaPaz, AZ; San Bernardino, CA",
      "Latitude": 34.2966,
      "Longitude": -114.1394,
      "State": "Arizona and California"
    }
  },
  {
    "Dimensions": {
      "Crest Elevation": 5858.1,
      "Crest Length": 432.0,
      "Structural Height": 214.0
    },
    "Identity": {
      "Name": "Pathfinder Dam",
      "Watercourse": "North Platte River",
      "Project": {
        "Organization": "North Platte",
        "Year": 1905
      }
    },
    "Location": {
      "County": "Natrona",
      "Latitude": 42.4683,
      "Longitude": -106.8533,
      "State": "Wyoming"
    }
  },
  {
    "Dimensions": {
      "Crest Elevation": 5868.1,
      "Crest Length": 1650.0,
      "Structural Height": 38.0
    },
    "Identity": {
      "Name": "Pathfinder Dike Dam",
      "Watercourse": "North Platte River",
      "Project": {
        "Organization": "North Platte",
        "Year": 1909
      }
    },
    "Location": {
      "County": "Natrona",
      "Latitude": 42.8075,
      "Longitude": -106.855,
      "State": "Wyoming"
    }
  },
  {
    "Dimensions": {
      "Crest Elevation": 5467.0,
      "Crest Length": 55.0,
      "Structural Height": 64.0
    },
    "Identity": {
      "Name": "Pilot Butte Dam",
      "Watercourse": "Offstream",
      "Project": {
        "Organization": "PSMBP-Riverton",
        "Year": 1926
      }
    },
    "Location": {
      "County": "Fremont",
      "Latitude": 43.197,
      "Longitude": -108.7531,
      "State": "Wyoming"
    }
  },
  {
    "Dimensions": {
      "Crest Elevation": 4908.0,
      "Crest Length": 600.0,
      "Structural Height": 137.0
    },
    "Identity": {
      "Name": "Pineview Dam",
      "Watercourse": "Ogden River",
      "Project": {
        "Organization": "Ogden River",
        "Year": 1934
      }
    },
    "Location": {
      "County": "Weber",
      "Latitude": 41.25402401249621,
      "Longitude": -111.84270858764648,
      "State": "Utah"
    }
  },
  {
    "Dimensions": {
      "Crest Elevation": 1351.0,
      "Crest Length": 1900.0,
      "Structural Height": 130.0
    },
    "Identity": {
      "Name": "Pinto Dam",
      "Watercourse": "Offstream Storage",
      "Project": {
        "Organization": "Columbia Basin",
        "Year": 1946
      }
    },
    "Location": {
      "County": "Grant",
      "Latitude": 47.4483,
      "Longitude": -119.2533,
      "State": "Washington"
    }
  },
  {
    "Dimensions": {
      "Crest Elevation": 4380.0,
      "Crest Length": 9050.0,
      "Structural Height": 12.0
    },
    "Identity": {
      "Name": "Pishkun Dikes",
      "Watercourse": "Offstream Storage",
      "Project": {
        "Organization": "Sun River",
        "Year": 1930
      }
    },
    "Location": {
      "County": "Teton",
      "Latitude": 47.6818,
      "Longitude": -112.5058,
      "State": "Montana"
    }
  },
  {
    "Dimensions": {
      "Crest Elevation": 10048.0,
      "Crest Length": 1475.0,
      "Structural Height": 165.0
    },
    "Identity": {
      "Name": "Platoro Dam",
      "Watercourse": "Conejos River",
      "Project": {
        "Organization": "San Luis Valley",
        "Year": 1949
      }
    },
    "Location": {
      "County": "Conejos",
      "Latitude": 37.35073917834847,
      "Longitude": -106.5483283996582,
      "State": "Colorado"
    }
  },
  {
    "Dimensions": {
      "Crest Elevation": 6597.25,
      "Crest Length": 220.0,
      "Structural Height": 32.0
    },
    "Identity": {
      "Name": "Pole Hill Afterbay Dam",
      "Watercourse": "Little Hell Creek",
      "Project": {
        "Organization": "Colorado-Big Thompson",
        "Year": 1953
      }
    },
    "Location": {
      "County": "Larimer",
      "Latitude": 40.36642,
      "Longitude": -105.33156,
      "State": "Colorado"
    }
  },
  {
    "Dimensions": {
      "Crest Elevation": 5761.0,
      "Crest Length": 1830.0,
      "Structural Height": 163.0
    },
    "Identity": {
      "Name": "Prosser Creek Dam",
      "Watercourse": "Prosser Creek",
      "Project": {
        "Organization": "Washoe",
        "Year": 1959
      }
    },
    "Location": {
      "County": "Placer",
      "Latitude": 36.27807901986153,
      "Longitude": -97.50189279297881,
      "State": "California"
    }
  },
  {
    "Dimensions": {
      "Crest Elevation": 4925.0,
      "Crest Length": 10230.0,
      "Structural Height": 250.0
    },
    "Identity": {
      "Name": "Pueblo Dam",
      "Watercourse": "Arkansas River",
      "Project": {
        "Organization": "Fryingpan-Arkansas",
        "Year": 1970
      }
    },
    "Location": {
      "County": "Pueblo",
      "Latitude": 38.2839,
      "Longitude": -104.73,
      "State": "Colorado"
    }
  },
  {
    "Dimensions": {
      "Crest Elevation": 4141.1,
      "Crest Length": 2784.18,
      "Structural Height": 132.17
    },
    "Identity": {
      "Name": "Putah Dam",
      "Watercourse": "Putah Creek",
      "Project": {
        "Organization": "Solano",
        "Year": 1957
      }
    },
    "Location": {
      "County": "Yolo",
      "Latitude": 36.27807901986153,
      "Longitude": -97.50189279297881,
      "State": "California"
    }
  },
  {
    "Dimensions": {
      "Crest Elevation": 1289.0,
      "Crest Length": 271.0,
      "Structural Height": 44.0
    },
    "Identity": {
      "Name": "Rainbow Diversion Dam",
      "Watercourse": "Stony Creek",
      "Project": {
        "Organization": "Orland",
        "Year": 1914
      }
    },
    "Location": {
      "County": "Colusa",
      "Latitude": 36.27807901986153,
      "Longitude": -97.50189279297881,
      "State": "California"
    }
  },
  {
    "Dimensions": {
      "Crest Elevation": 4599.0,
      "Crest Length": 2220.0,
      "Structural Height": 35.0
    },
    "Identity": {
      "Name": "Ralston Dam",
      "Watercourse": "Garland Canal",
      "Project": {
        "Organization": "Shoshone",
        "Year": 1908
      }
    },
    "Location": {
      "County": "Unknown",
      "Latitude": 44.72639,
      "Longitude": -108.86416,
      "State": "Wyoming"
    }
  },
  {
    "Dimensions": {
      "Crest Elevation": 6595.0,
      "Crest Length": 1951.0,
      "Structural Height": 130.0
    },
    "Identity": {
      "Name": "Rattlesnake Dam",
      "Watercourse": "Rattlesnake Creek",
      "Project": {
        "Organization": "Colorado-Big thompson",
        "Year": 1951
      }
    },
    "Location": {
      "County": "Larimer",
      "Latitude": 40.3708,
      "Longitude": -105.2889,
      "State": "Colorado"
    }
  },
  {
    "Dimensions": {
      "Crest Elevation": 4141.1,
      "Crest Length": 2784.18,
      "Structural Height": 132.17
    },
    "Identity": {
      "Name": "Red Bluff Diversion Dam",
      "Watercourse": "Sacramento River",
      "Project": {
        "Organization": "CVP-Sacramento Canals",
        "Year": 1964
      }
    },
    "Location": {
      "County": "Tehama",
      "Latitude": 36.27807901986153,
      "Longitude": -97.50189279297881,
      "State": "California"
    }
  },
  {
    "Dimensions": {
      "Crest Elevation": 5627.0,
      "Crest Length": 1670.0,
      "Structural Height": 175.0
    },
    "Identity": {
      "Name": "Red Fleet Dam",
      "Watercourse": "Big Bush Creek",
      "Project": {
        "Organization": "CUP-Jensen Unit",
        "Year": 1977
      }
    },
    "Location": {
      "County": "Uintah",
      "Latitude": 40.580282627221635,
      "Longitude": -109.44219589233398,
      "State": "Utah"
    }
  },
  {
    "Dimensions": {
      "Crest Elevation": 4141.1,
      "Crest Length": 2784.18,
      "Structural Height": 132.17
    },
    "Identity": {
      "Name": "Red Willow Creek Diversion Dam",
      "Watercourse": "Red Willow Creek",
      "Project": {
        "Organization": "PSMBP-Frenchman-Cambridge",
        "Year": 1963
      }
    },
    "Location": {
      "County": "Red Willow",
      "Latitude": 40.28167,
      "Longitude": -100.54177,
      "State": "Nebraska"
    }
  },
  {
    "Dimensions": {
      "Crest Elevation": 2634.0,
      "Crest Length": 3159.0,
      "Structural Height": 126.0
    },
    "Identity": {
      "Name": "Red Willow Dam",
      "Watercourse": "Red Willow Creek",
      "Project": {
        "Organization": "French-Cambridge (PSMBP)",
        "Year": 1960
      }
    },
    "Location": {
      "County": "Frontier",
      "Latitude": 40.3639,
      "Longitude": -100.6656,
      "State": "Nebraska"
    }
  },
  {
    "Dimensions": {
      "Crest Elevation": 1813.0,
      "Crest Length": 2200.0,
      "Structural Height": 60.0
    },
    "Identity": {
      "Name": "Reservoir A Dam",
      "Watercourse": "Offstream Storage - Lindsey Creek",
      "Project": {
        "Organization": "Lewiston Orchards",
        "Year": 1907
      }
    },
    "Location": {
      "County": "Nez Perce",
      "Latitude": 46.371998,
      "Longitude": -116.8574309,
      "State": "Idaho"
    }
  },
  {
    "Dimensions": {
      "Crest Elevation": 6888.5,
      "Crest Length": 2465.0,
      "Structural Height": 332.9
    },
    "Identity": {
      "Name": "Ridgway Dam",
      "Watercourse": "Uncompahgre River",
      "Project": {
        "Organization": "Dallas Creek",
        "Year": 1978
      }
    },
    "Location": {
      "County": "Ouray",
      "Latitude": 38.19918230382011,
      "Longitude": -107.74206161499023,
      "State": "Colorado"
    }
  },
  {
    "Dimensions": {
      "Crest Elevation": 5978.0,
      "Crest Length": 1450.0,
      "Structural Height": 157.0
    },
    "Identity": {
      "Name": "Rifle Gap Dam",
      "Watercourse": "Rifle Creek",
      "Project": {
        "Organization": "Silt",
        "Year": 1964
      }
    },
    "Location": {
      "County": "Garfield",
      "Latitude": 39.62720076390745,
      "Longitude": -107.76025772094727,
      "State": "Colorado"
    }
  },
  {
    "Dimensions": {
      "Crest Elevation": 5128.0,
      "Crest Length": 1070.0,
      "Structural Height": 253.0
    },
    "Identity": {
      "Name": "Ririe Dam",
      "Watercourse": "Willow Creek",
      "Project": {
        "Organization": "Ririe",
        "Year": 1970
      }
    },
    "Location": {
      "County": "Bonneville",
      "Latitude": 43.5833,
      "Longitude": -111.7425,
      "State": "Idaho"
    }
  },
  {
    "Dimensions": {
      "Crest Elevation": 765.0,
      "Crest Length": 530.0,
      "Structural Height": 24.0
    },
    "Identity": {
      "Name": "Robles Dam",
      "Watercourse": "Ventura River",
      "Project": {
        "Organization": "Ventura River",
        "Year": 1958
      }
    },
    "Location": {
      "County": "Ventura",
      "Latitude": 36.27807901986153,
      "Longitude": -97.50189279297881,
      "State": "California"
    }
  },
  {
    "Dimensions": {
      "Crest Elevation": 1205.0,
      "Crest Length": 486.0,
      "Structural Height": 67.0
    },
    "Identity": {
      "Name": "Roza Diversion Dam",
      "Watercourse": "Yakima River",
      "Project": {
        "Organization": "Yakima",
        "Year": 1939
      }
    },
    "Location": {
      "County": "Kittitas",
      "Latitude": 46.74923,
      "Longitude": -120.4658,
      "State": "Washington"
    }
  },
  {
    "Dimensions": {
      "Crest Elevation": 7788.0,
      "Crest Length": 1042.0,
      "Structural Height": 285.0
    },
    "Identity": {
      "Name": "Ruedi Dam",
      "Watercourse": "Fryingpan River",
      "Project": {
        "Organization": "Fryingpan-Arkansas",
        "Year": 1964
      }
    },
    "Location": {
      "County": "Eagle & Pitkin",
      "Latitude": 39.3631,
      "Longitude": -106.8181,
      "State": "Colorado"
    }
  },
  {
    "Dimensions": {
      "Crest Elevation": 4144.0,
      "Crest Length": 1074.0,
      "Structural Height": 78.0
    },
    "Identity": {
      "Name": "Rye Patch Dam",
      "Watercourse": "Humboldt River",
      "Project": {
        "Organization": "Humboldt",
        "Year": 1935
      }
    },
    "Location": {
      "County": "Pershing",
      "Latitude": 40.4617,
      "Longitude": -118.3083,
      "State": "Nevada"
    }
  },
  {
    "Dimensions": {
      "Crest Elevation": 2325.5,
      "Crest Length": 1260.0,
      "Structural Height": 54.0
    },
    "Identity": {
      "Name": "Salmon Lake Dam",
      "Watercourse": "Offstream Storage",
      "Project": {
        "Organization": "Okanogan",
        "Year": 1919
      }
    },
    "Location": {
      "County": "Okanogan",
      "Latitude": 48.56036,
      "Longitude": -119.74496,
      "State": "Washington"
    }
  },
  {
    "Dimensions": {
      "Crest Elevation": 4668.5,
      "Crest Length": 700.0,
      "Structural Height": 17.0
    },
    "Identity": {
      "Name": "San Acacia Diversion Dam",
      "Watercourse": "Rio Grande",
      "Project": {
        "Organization": "Middle Rio Grande",
        "Year": 1934
      }
    },
    "Location": {
      "County": "Socorro",
      "Latitude": 36.27807901986153,
      "Longitude": -97.50189279297881,
      "State": "New Mexico"
    }
  },
  {
    "Dimensions": {
      "Crest Elevation": 508.5,
      "Crest Length": 1115.0,
      "Structural Height": 135.0
    },
    "Identity": {
      "Name": "San Justo Dam",
      "Watercourse": "Offtream Storage",
      "Project": {
        "Organization": "CVP-San Felipe Division",
        "Year": 1987
      }
    },
    "Location": {
      "County": "San Benito",
      "Latitude": 36.27807901986153,
      "Longitude": -97.50189279297881,
      "State": "California"
    }
  },
  {
    "Dimensions": {
      "Crest Elevation": 3011.0,
      "Crest Length": 2784.18,
      "Structural Height": 228.0
    },
    "Identity": {
      "Name": "Sanford Dam",
      "Watercourse": "Canadian River",
      "Project": {
        "Organization": "Canadian River",
        "Year": 1962
      }
    },
    "Location": {
      "County": "Hutchinson",
      "Latitude": 35.71367,
      "Longitude": -101.55251,
      "State": "Texas"
    }
  },
  {
    "Dimensions": {
      "Crest Elevation": 5443.0,
      "Crest Length": 328.0,
      "Structural Height": 30.0
    },
    "Identity": {
      "Name": "Satanka Dike Dam",
      "Watercourse": "Offstream Storage",
      "Project": {
        "Organization": "Colorado-Big Thompson",
        "Year": 1946
      }
    },
    "Location": {
      "County": "Larimer",
      "Latitude": 40.59957,
      "Longitude": -105.17569,
      "State": "Colorado"
    }
  },
  {
    "Dimensions": {
      "Crest Elevation": 10084.5,
      "Crest Length": 20.0,
      "Structural Height": 6.0
    },
    "Identity": {
      "Name": "Sawyer Diversion Dam",
      "Watercourse": "Sawyer Creek",
      "Project": {
        "Organization": "Fryingpan-Arkansas",
        "Year": 1970
      }
    },
    "Location": {
      "County": "Pitkin",
      "Latitude": 39.15564,
      "Longitude": -106.38123,
      "State": "Colorado"
    }
  },
  {
    "Dimensions": {
      "Crest Elevation": 7636.0,
      "Crest Length": 575.0,
      "Structural Height": 96.0
    },
    "Identity": {
      "Name": "Scofield Dam",
      "Watercourse": "Price River",
      "Project": {
        "Organization": "Scofield",
        "Year": 1943
      }
    },
    "Location": {
      "County": "Carbon",
      "Latitude": 39.786204925959254,
      "Longitude": -111.11949920654297,
      "State": "Utah"
    }
  },
  {
    "Dimensions": {
      "Crest Elevation": 313.0,
      "Crest Length": 2700.0,
      "Structural Height": 151.0
    },
    "Identity": {
      "Name": "Scoggins Dam",
      "Watercourse": "Scoggins Creek",
      "Project": {
        "Organization": "Tualatin",
        "Year": 1972
      }
    },
    "Location": {
      "County": "Washington",
      "Latitude": 45.4724,
      "Longitude": -123.19965,
      "State": "Oregon"
    }
  },
  {
    "Dimensions": {
      "Crest Elevation": 6361.0,
      "Crest Length": 530.0,
      "Structural Height": 295.0
    },
    "Identity": {
      "Name": "Seminoe Dam",
      "Watercourse": "North Platte River",
      "Project": {
        "Organization": "Kendrick",
        "Year": 1936
      }
    },
    "Location": {
      "County": "Carbon",
      "Latitude": 42.1569,
      "Longitude": -106.9083,
      "State": "Wyoming"
    }
  },
  {
    "Dimensions": {
      "Crest Elevation": 265.0,
      "Crest Length": 2342.0,
      "Structural Height": 93.6
    },
    "Identity": {
      "Name": "Senator Wash Dam",
      "Watercourse": "Offstream",
      "Project": {
        "Organization": "Colorado River Front Work & Levee System",
        "Year": 1964
      }
    },
    "Location": {
      "County": "Imperial",
      "Latitude": 32.91,
      "Longitude": -114.4783,
      "State": "California"
    }
  },
  {
    "Dimensions": {
      "Crest Elevation": 2318.0,
      "Crest Length": 12843.0,
      "Structural Height": 145.0
    },
    "Identity": {
      "Name": "Shadehill Dam",
      "Watercourse": "Grand River",
      "Project": {
        "Organization": "PSMBP-Shadehill",
        "Year": 1949
      }
    },
    "Location": {
      "County": "Perkins",
      "Latitude": 45.7533,
      "Longitude": -102.2033,
      "State": "South Dakota"
    }
  },
  {
    "Dimensions": {
      "Crest Elevation": 8375.0,
      "Crest Length": 3077.0,
      "Structural Height": 63.0
    },
    "Identity": {
      "Name": "Shadow Mountain Dam",
      "Watercourse": "Colorado River",
      "Project": {
        "Organization": "Colorado-Big Thompson",
        "Year": 1944
      }
    },
    "Location": {
      "County": "Grand",
      "Latitude": 40.20785,
      "Longitude": -105.84102,
      "State": "Colorado"
    }
  },
  {
    "Dimensions": {
      "Crest Elevation": 1077.5,
      "Crest Length": 3460.0,
      "Structural Height": 602.0
    },
    "Identity": {
      "Name": "Shasta Dam",
      "Watercourse": "Sacramento River",
      "Project": {
        "Organization": "CVP-Shasta/Trinity",
        "Year": 1938
      }
    },
    "Location": {
      "County": "Shasta",
      "Latitude": 36.27807901986153,
      "Longitude": -97.50189279297881,
      "State": "California"
    }
  },
  {
    "Dimensions": {
      "Crest Elevation": 8939.0,
      "Crest Length": 1050.0,
      "Structural Height": 173.9
    },
    "Identity": {
      "Name": "Silver Jack Dam",
      "Watercourse": "Cimarron Creek",
      "Project": {
        "Organization": "Bostwick Park",
        "Year": 1966
      }
    },
    "Location": {
      "County": "Gunnison",
      "Latitude": 38.23206979408184,
      "Longitude": -107.54310607910156,
      "State": "Colorado"
    }
  },
  {
    "Dimensions": {
      "Crest Elevation": 3482.0,
      "Crest Length": 760.0,
      "Structural Height": 190.0
    },
    "Identity": {
      "Name": "Sly Park Dam",
      "Watercourse": "Sly Park Creek",
      "Project": {
        "Organization": "CVP-Folsom Sly Park",
        "Year": 1953
      }
    },
    "Location": {
      "County": "El Dorado",
      "Latitude": 38.7208,
      "Longitude": -120.56,
      "State": "California"
    }
  },
  {
    "Dimensions": {
      "Crest Elevation": 5443.0,
      "Crest Length": 1438.0,
      "Structural Height": 226.0
    },
    "Identity": {
      "Name": "Soldier Canyon Dam",
      "Watercourse": "Offstream Storage",
      "Project": {
        "Organization": "Colorado-Big Thompson",
        "Year": 1946
      }
    },
    "Location": {
      "County": "Larimer",
      "Latitude": 40.5883,
      "Longitude": -105.1033,
      "State": "Colorado"
    }
  },
  {
    "Dimensions": {
      "Crest Elevation": 7612.0,
      "Crest Length": 1290.0,
      "Structural Height": 272.0
    },
    "Identity": {
      "Name": "Soldier Creek Dam",
      "Watercourse": "Strawberry River",
      "Project": {
        "Organization": "CUP - Bonneville Unit",
        "Year": 1970
      }
    },
    "Location": {
      "County": "Wasatch",
      "Latitude": 40.13579923864353,
      "Longitude": -111.02628707885742,
      "State": "Utah"
    }
  },
  {
    "Dimensions": {
      "Crest Elevation": 4529.0,
      "Crest Length": 630.0,
      "Structural Height": 69.0
    },
    "Identity": {
      "Name": "Soldiers Meadow Dam",
      "Watercourse": "Webb Creek",
      "Project": {
        "Organization": "Lewiston Orchards",
        "Year": 1923
      }
    },
    "Location": {
      "County": "NezPerce",
      "Latitude": 46.16727,
      "Longitude": -116.7367,
      "State": "Idaho"
    }
  },
  {
    "Dimensions": {
      "Crest Elevation": 10539.0,
      "Crest Length": 20.0,
      "Structural Height": 132.17
    },
    "Identity": {
      "Name": "South Cunningham Creek Diversion Dam",
      "Watercourse": "Cunningham Creek",
      "Project": {
        "Organization": "Fryingpan-Arkansas",
        "Year": 1976
      }
    },
    "Location": {
      "County": "Pitkin",
      "Latitude": 39.19271,
      "Longitude": -106.33298,
      "State": "Colorado"
    }
  },
  {
    "Dimensions": {
      "Crest Elevation": 10003.0,
      "Crest Length": 20.0,
      "Structural Height": 13.0
    },
    "Identity": {
      "Name": "South Fork Diversion Dam",
      "Watercourse": "Fryingpan-Arkansas",
      "Project": {
        "Organization": "Fryingpan-Arkansas",
        "Year": 1965
      }
    },
    "Location": {
      "County": "Pitkin",
      "Latitude": 39.14158,
      "Longitude": -106.35222,
      "State": "Colorado"
    }
  },
  {
    "Dimensions": {
      "Crest Elevation": 5443.0,
      "Crest Length": 1840.0,
      "Structural Height": 155.0
    },
    "Identity": {
      "Name": "Spring Canyon Dam",
      "Watercourse": "Offstream Storage",
      "Project": {
        "Organization": "Colorado-Big Thompson",
        "Year": 1946
      }
    },
    "Location": {
      "County": "Larimer",
      "Latitude": 40.53,
      "Longitude": -105.135,
      "State": "Colorado"
    }
  },
  {
    "Dimensions": {
      "Crest Elevation": 816.0,
      "Crest Length": 1110.0,
      "Structural Height": 196.0
    },
    "Identity": {
      "Name": "Spring Creek Debris Dam",
      "Watercourse": "Spring Creek",
      "Project": {
        "Organization": "CVP-Shasta/Trinity",
        "Year": 1961
      }
    },
    "Location": {
      "County": "Shasta",
      "Latitude": 36.27807901986153,
      "Longitude": -97.50189279297881,
      "State": "California"
    }
  },
  {
    "Dimensions": {
      "Crest Elevation": 4457.5,
      "Crest Length": 198.0,
      "Structural Height": 6.0
    },
    "Identity": {
      "Name": "St. Mary Diversion Dam",
      "Watercourse": "St. Mary River",
      "Project": {
        "Organization": "Milk River",
        "Year": 1915
      }
    },
    "Location": {
      "County": "Glacier",
      "Latitude": 48.8521,
      "Longitude": -113.4169,
      "State": "Montana"
    }
  },
  {
    "Dimensions": {
      "Crest Elevation": 5974.0,
      "Crest Length": 1511.0,
      "Structural Height": 239.0
    },
    "Identity": {
      "Name": "Stampede Dam",
      "Watercourse": "Little Truckee R.",
      "Project": {
        "Organization": "Washoe",
        "Year": 1966
      }
    },
    "Location": {
      "County": "Sierra",
      "Latitude": 39.1078,
      "Longitude": -120.11,
      "State": "California"
    }
  },
  {
    "Dimensions": {
      "Crest Elevation": 5725.0,
      "Crest Length": 3070.0,
      "Structural Height": 200.3
    },
    "Identity": {
      "Name": "Starvation Dam",
      "Watercourse": "Strawberry River",
      "Project": {
        "Organization": "CUP-Bonneville Unit",
        "Year": 1970
      }
    },
    "Location": {
      "County": "Duchesne",
      "Latitude": 40.18875731912906,
      "Longitude": -110.44418334960938,
      "State": "Utah"
    }
  },
  {
    "Dimensions": {
      "Crest Elevation": 9176.0,
      "Crest Length": 2800.0,
      "Structural Height": 143.0
    },
    "Identity": {
      "Name": "Stateline Dam",
      "Watercourse": "East Fork of Smiths Fork",
      "Project": {
        "Organization": "Lyman",
        "Year": 1977
      }
    },
    "Location": {
      "County": "Summit",
      "Latitude": 40.99,
      "Longitude": -110.39,
      "State": "Utah"
    }
  },
  {
    "Dimensions": {
      "Crest Elevation": 5527.0,
      "Crest Length": 1997.0,
      "Structural Height": 162.2
    },
    "Identity": {
      "Name": "Steinaker Dam",
      "Watercourse": "Offstream",
      "Project": {
        "Organization": "CUP-Vernal Unit",
        "Year": 1959
      }
    },
    "Location": {
      "County": "Uintah",
      "Latitude": 40.50566599541602,
      "Longitude": -109.53094482421875,
      "State": "Utah"
    }
  },
  {
    "Dimensions": {
      "Crest Elevation": 1533.0,
      "Crest Length": 1260.0,
      "Structural Height": 207.0
    },
    "Identity": {
      "Name": "Stewart Mountain Dam",
      "Watercourse": "Salt River",
      "Project": {
        "Organization": "Salt River",
        "Year": 1928
      }
    },
    "Location": {
      "County": "Maricopa",
      "Latitude": 33.5666,
      "Longitude": -111.5361,
      "State": "Arizona"
    }
  },
  {
    "Dimensions": {
      "Crest Elevation": 847.0,
      "Crest Length": 868.0,
      "Structural Height": 139.0
    },
    "Identity": {
      "Name": "Stony Gorge Dam",
      "Watercourse": "Stony Creek",
      "Project": {
        "Organization": "Orland",
        "Year": 1926
      }
    },
    "Location": {
      "County": "Glenn",
      "Latitude": 36.27807901986153,
      "Longitude": -97.50189279297881,
      "State": "California"
    }
  },
  {
    "Dimensions": {
      "Crest Elevation": 9879.0,
      "Crest Length": 2020.0,
      "Structural Height": 135.0
    },
    "Identity": {
      "Name": "Sugar Loaf Dam",
      "Watercourse": "Lake Fork of the Arkansas",
      "Project": {
        "Organization": "Fryingpan-Arkansas",
        "Year": 1965
      }
    },
    "Location": {
      "County": "Lake",
      "Latitude": 39.2517,
      "Longitude": -106.3733,
      "State": "Colorado"
    }
  },
  {
    "Dimensions": {
      "Crest Elevation": 4301.0,
      "Crest Length": 3675.0,
      "Structural Height": 164.0
    },
    "Identity": {
      "Name": "Sumner Dam",
      "Watercourse": "Pecos River",
      "Project": {
        "Organization": "Carlsbad",
        "Year": 1936
      }
    },
    "Location": {
      "County": "De Baca",
      "Latitude": 34.60716840001175,
      "Longitude": -104.38758373260498,
      "State": "New Mexico"
    }
  },
  {
    "Dimensions": {
      "Crest Elevation": 4474.0,
      "Crest Length": 261.0,
      "Structural Height": 132.0
    },
    "Identity": {
      "Name": "Sun River Diversion Dam",
      "Watercourse": "North Fork Sun River",
      "Project": {
        "Organization": "Sun River",
        "Year": 1915
      }
    },
    "Location": {
      "County": "Teton, Lewis and Clark",
      "Latitude": 47.6211,
      "Longitude": -112.7066,
      "State": "Montana"
    }
  },
  {
    "Dimensions": {
      "Crest Elevation": 4141.1,
      "Crest Length": 2784.18,
      "Structural Height": 132.17
    },
    "Identity": {
      "Name": "Superior Courtland Diversion Dam",
      "Watercourse": "Republican River",
      "Project": {
        "Organization": "PSMBP-Bostwick",
        "Year": 1950
      }
    },
    "Location": {
      "County": "Webster",
      "Latitude": 40.06759,
      "Longitude": -98.37712,
      "State": "Nebraska"
    }
  },
  {
    "Dimensions": {
      "Crest Elevation": 4485.0,
      "Crest Length": 4800.0,
      "Structural Height": 13.0
    },
    "Identity": {
      "Name": "Swift Current Dike",
      "Watercourse": "St. Mary River",
      "Project": {
        "Organization": "Milk River",
        "Year": 1915
      }
    },
    "Location": {
      "County": "Glacier",
      "Latitude": 48.5107,
      "Longitude": -113.2501,
      "State": "Montana"
    }
  },
  {
    "Dimensions": {
      "Crest Elevation": 9343.0,
      "Crest Length": 675.0,
      "Structural Height": 206.8
    },
    "Identity": {
      "Name": "Taylor Park Dam",
      "Watercourse": "Taylor River",
      "Project": {
        "Organization": "Uncompahgre",
        "Year": 1935
      }
    },
    "Location": {
      "County": "Gunnison",
      "Latitude": 38.818001324034284,
      "Longitude": -106.60652160644531,
      "State": "Colorado"
    }
  },
  {
    "Dimensions": {
      "Crest Elevation": 90.0,
      "Crest Length": 870.0,
      "Structural Height": 24.0
    },
    "Identity": {
      "Name": "Terminal Dam",
      "Watercourse": "Offstream Storage",
      "Project": {
        "Organization": "Solano",
        "Year": 1959
      }
    },
    "Location": {
      "County": "Solano",
      "Latitude": 36.27807901986153,
      "Longitude": -97.50189279297881,
      "State": "California"
    }
  },
  {
    "Dimensions": {
      "Crest Elevation": 2218.0,
      "Crest Length": 1210.0,
      "Structural Height": 357.0
    },
    "Identity": {
      "Name": "Theodore Roosevelt Dam",
      "Watercourse": "Salt River",
      "Project": {
        "Organization": "Salt River",
        "Year": 1903
      }
    },
    "Location": {
      "County": "Maricopa, Gila",
      "Latitude": 33.6718,
      "Longitude": -111.1613,
      "State": "Arizona"
    }
  },
  {
    "Dimensions": {
      "Crest Elevation": 3143.0,
      "Crest Length": 390.0,
      "Structural Height": 73.0
    },
    "Identity": {
      "Name": "Thief Valley Dam",
      "Watercourse": "Powder River",
      "Project": {
        "Organization": "Baker, Union",
        "Year": 1931
      }
    },
    "Location": {
      "County": "Baker, Union",
      "Latitude": 45.012996,
      "Longitude": -117.7810764,
      "State": "Oregon"
    }
  },
  {
    "Dimensions": {
      "Crest Elevation": 404.3,
      "Crest Length": 915.0,
      "Structural Height": 24.0
    },
    "Identity": {
      "Name": "Three Mile Falls Diversion Dam",
      "Watercourse": "Umatilla River",
      "Project": {
        "Organization": "Umatilla Basin",
        "Year": 1914
      }
    },
    "Location": {
      "County": "Umatilla",
      "Latitude": 45.882972,
      "Longitude": -119.3245482,
      "State": "Oregon"
    }
  },
  {
    "Dimensions": {
      "Crest Elevation": 3026.0,
      "Crest Length": 4300.0,
      "Structural Height": 211.0
    },
    "Identity": {
      "Name": "Tiber Dam",
      "Watercourse": "Marias River",
      "Project": {
        "Organization": "Lower Marias",
        "Year": 1952
      }
    },
    "Location": {
      "County": "Liberty",
      "Latitude": 48.3222,
      "Longitude": -111.0969,
      "State": "Montana"
    }
  },
  {
    "Dimensions": {
      "Crest Elevation": 2935.0,
      "Crest Length": 920.0,
      "Structural Height": 319.0
    },
    "Identity": {
      "Name": "Tieton Dam",
      "Watercourse": "Tieton river",
      "Project": {
        "Organization": "Yakima",
        "Year": 1917
      }
    },
    "Location": {
      "County": "Yakina",
      "Latitude": 46.657198,
      "Longitude": -121.12808,
      "State": "Washington"
    }
  },
  {
    "Dimensions": {
      "Crest Elevation": 2793.0,
      "Crest Length": 8600.0,
      "Structural Height": 144.0
    },
    "Identity": {
      "Name": "Trenton Dam",
      "Watercourse": "Republican River",
      "Project": {
        "Organization": "PSMBP-Frenchman-Cambridge",
        "Year": 1949
      }
    },
    "Location": {
      "County": "Hitchcock",
      "Latitude": 40.17,
      "Longitude": -101.06,
      "State": "Nebraska"
    }
  },
  {
    "Dimensions": {
      "Crest Elevation": 2395.0,
      "Crest Length": 2450.0,
      "Structural Height": 538.0
    },
    "Identity": {
      "Name": "Trinity Dam",
      "Watercourse": "Trinity River",
      "Project": {
        "Organization": "CVP-ShastaTrinity",
        "Year": 1957
      }
    },
    "Location": {
      "County": "Trinity",
      "Latitude": 36.27807901986153,
      "Longitude": -97.50189279297881,
      "State": "California"
    }
  },
  {
    "Dimensions": {
      "Crest Elevation": 4000.0,
      "Crest Length": 205.0,
      "Structural Height": 11.0
    },
    "Identity": {
      "Name": "Tub Springs Creek Diversion Dam",
      "Watercourse": "Tub springs Creek",
      "Project": {
        "Organization": "North Platte",
        "Year": 0
      }
    },
    "Location": {
      "County": "Scotts Bluff",
      "Latitude": 41.85086,
      "Longitude": -103.68886,
      "State": "Nebraska"
    }
  },
  {
    "Dimensions": {
      "Crest Elevation": 1991.0,
      "Crest Length": 42460.0,
      "Structural Height": 134.0
    },
    "Identity": {
      "Name": "Twin Buttes Dam",
      "Watercourse": "Spring Creek",
      "Project": {
        "Organization": "San Angelo",
        "Year": 1960
      }
    },
    "Location": {
      "County": "Tom Green",
      "Latitude": 31.3767,
      "Longitude": -100.5333,
      "State": "Texas"
    }
  },
  {
    "Dimensions": {
      "Crest Elevation": 9210.0,
      "Crest Length": 3150.0,
      "Structural Height": 132.17
    },
    "Identity": {
      "Name": "Twin Lakes Dam",
      "Watercourse": "Lake Creek",
      "Project": {
        "Organization": "Fryingpan-Arkansas",
        "Year": 1978
      }
    },
    "Location": {
      "County": "Lake",
      "Latitude": 39.0833,
      "Longitude": -106.4617,
      "State": "Colorado"
    }
  },
  {
    "Dimensions": {
      "Crest Elevation": 692.0,
      "Crest Length": 1804.0,
      "Structural Height": 241.0
    },
    "Identity": {
      "Name": "Twitchell Dam",
      "Watercourse": "Cuyama River",
      "Project": {
        "Organization": "Santa Maria",
        "Year": 1956
      }
    },
    "Location": {
      "County": "San Luis Obispo",
      "Latitude": 34.9778,
      "Longitude": -120.3167,
      "State": "California"
    }
  },
  {
    "Dimensions": {
      "Crest Elevation": 3827.3,
      "Crest Length": 694.0,
      "Structural Height": 82.0
    },
    "Identity": {
      "Name": "Unity Dam",
      "Watercourse": "Burnt River",
      "Project": {
        "Organization": "Burnt River",
        "Year": 1936
      }
    },
    "Location": {
      "County": "Baker",
      "Latitude": 44.5042,
      "Longitude": -118.1806,
      "State": "Oregon"
    }
  },
  {
    "Dimensions": {
      "Crest Elevation": 4560.0,
      "Crest Length": 88.0,
      "Structural Height": 18.0
    },
    "Identity": {
      "Name": "Upper Slaven Diversion Dam",
      "Watercourse": "Humboldt",
      "Project": {
        "Organization": "Humboldt",
        "Year": 1958
      }
    },
    "Location": {
      "County": "Lander",
      "Latitude": 36.27807901986153,
      "Longitude": -97.50189279297881,
      "State": "Nevada"
    }
  },
  {
    "Dimensions": {
      "Crest Elevation": 8180.0,
      "Crest Length": 2660.0,
      "Structural Height": 310.0
    },
    "Identity": {
      "Name": "Upper Stillwater Dam",
      "Watercourse": "Rock Creek",
      "Project": {
        "Organization": "CUP-Bonneville Unit",
        "Year": 1983
      }
    },
    "Location": {
      "County": "Duchesne",
      "Latitude": 40.56,
      "Longitude": -110.6992,
      "State": "Utah"
    }
  },
  {
    "Dimensions": {
      "Crest Elevation": 7673.0,
      "Crest Length": 4010.0,
      "Structural Height": 162.0
    },
    "Identity": {
      "Name": "Vallecito Dam",
      "Watercourse": "Pine River (Los Pinos)",
      "Project": {
        "Organization": "Pine River",
        "Year": 1938
      }
    },
    "Location": {
      "County": "La Plata",
      "Latitude": 37.37775337577529,
      "Longitude": -107.57537841796875,
      "State": "Colorado"
    }
  },
  {
    "Dimensions": {
      "Crest Elevation": 2116.0,
      "Crest Length": 2350.0,
      "Structural Height": 32.0
    },
    "Identity": {
      "Name": "Vandalia Diversion Dam",
      "Watercourse": "Milk River",
      "Project": {
        "Organization": "Milk River",
        "Year": 1917
      }
    },
    "Location": {
      "County": "Valley",
      "Latitude": 48.3727,
      "Longitude": -106.9749,
      "State": "Montana"
    }
  },
  {
    "Dimensions": {
      "Crest Elevation": 7997.0,
      "Crest Length": 2100.0,
      "Structural Height": 162.0
    },
    "Identity": {
      "Name": "Vega Dam",
      "Watercourse": "Plateau Creek",
      "Project": {
        "Organization": "Collbran",
        "Year": 1957
      }
    },
    "Location": {
      "County": "Mesa",
      "Latitude": 39.222990274902536,
      "Longitude": -107.81081199645996,
      "State": "Colorado"
    }
  },
  {
    "Dimensions": {
      "Crest Elevation": 2259.0,
      "Crest Length": 147.0,
      "Structural Height": 96.0
    },
    "Identity": {
      "Name": "Virginia Smith Dam",
      "Watercourse": "Calamus River",
      "Project": {
        "Organization": "PSMBP-North Loup",
        "Year": 1985
      }
    },
    "Location": {
      "County": "Garfield and Loup",
      "Latitude": 41.8333,
      "Longitude": -99.2,
      "State": "Nebraska"
    }
  },
  {
    "Dimensions": {
      "Crest Elevation": 6055.0,
      "Crest Length": 2015.0,
      "Structural Height": 175.0
    },
    "Identity": {
      "Name": "Wanship Dam",
      "Watercourse": "Weber River",
      "Project": {
        "Organization": "Weber Basin",
        "Year": 1954
      }
    },
    "Location": {
      "County": "Summit",
      "Latitude": 40.788558849975054,
      "Longitude": -111.40548706054688,
      "State": "Utah"
    }
  },
  {
    "Dimensions": {
      "Crest Elevation": 3409.0,
      "Crest Length": 469.0,
      "Structural Height": 106.0
    },
    "Identity": {
      "Name": "Warm Springs Dam",
      "Watercourse": "Middle Fork of the Malheur River",
      "Project": {
        "Organization": "Vale",
        "Year": 1918
      }
    },
    "Location": {
      "County": "Malheur",
      "Latitude": 43.58505,
      "Longitude": -118.2092857,
      "State": "Oregon"
    }
  },
  {
    "Dimensions": {
      "Crest Elevation": 3526.0,
      "Crest Length": 415.0,
      "Structural Height": 59.0
    },
    "Identity": {
      "Name": "Wasco Dam",
      "Watercourse": "Clear Creek",
      "Project": {
        "Organization": "Wapinitia",
        "Year": 1958
      }
    },
    "Location": {
      "County": "Wasco",
      "Latitude": 45.1748403,
      "Longitude": -121.6895197,
      "State": "Oregon"
    }
  },
  {
    "Dimensions": {
      "Crest Elevation": 1944.0,
      "Crest Length": 1944.0,
      "Structural Height": 154.0
    },
    "Identity": {
      "Name": "Webster Dam",
      "Watercourse": "SF of Solomon Rive",
      "Project": {
        "Organization": "PSMBP-Webster",
        "Year": 1953
      }
    },
    "Location": {
      "County": "Rooks",
      "Latitude": 39.4083,
      "Longitude": -99.4217,
      "State": "Kansas"
    }
  },
  {
    "Dimensions": {
      "Crest Elevation": 4292.0,
      "Crest Length": 2460.0,
      "Structural Height": 35.0
    },
    "Identity": {
      "Name": "Whalen Diversion Dam",
      "Watercourse": "North Platte River",
      "Project": {
        "Organization": "North Platte",
        "Year": 1909
      }
    },
    "Location": {
      "County": "Goshen",
      "Latitude": 42.24766,
      "Longitude": -104.62908,
      "State": "Wyoming"
    }
  },
  {
    "Dimensions": {
      "Crest Elevation": 1228.0,
      "Crest Length": 4000.0,
      "Structural Height": 282.0
    },
    "Identity": {
      "Name": "Whiskeytown Dam",
      "Watercourse": "Clear Creek",
      "Project": {
        "Organization": "CVP-Shasta/Trinity",
        "Year": 1960
      }
    },
    "Location": {
      "County": "Shasta",
      "Latitude": 36.27807901986153,
      "Longitude": -97.50189279297881,
      "State": "California"
    }
  },
  {
    "Dimensions": {
      "Crest Elevation": 4347.0,
      "Crest Length": 13860.0,
      "Structural Height": 100.0
    },
    "Identity": {
      "Name": "Wickiup Dam",
      "Watercourse": "Deschutes River",
      "Project": {
        "Organization": "Deschutes",
        "Year": 1939
      }
    },
    "Location": {
      "County": "Deschutes",
      "Latitude": 43.6953977,
      "Longitude": -121.7039162,
      "State": "Oregon"
    }
  },
  {
    "Dimensions": {
      "Crest Elevation": 8140.0,
      "Crest Length": 1100.0,
      "Structural Height": 127.0
    },
    "Identity": {
      "Name": "Willow Creek Co Dam",
      "Watercourse": "Willow Creek",
      "Project": {
        "Organization": "Colorado-Big Thompson",
        "Year": 1951
      }
    },
    "Location": {
      "County": "Grand",
      "Latitude": 40.1467,
      "Longitude": -105.9417,
      "State": "Colorado"
    }
  },
  {
    "Dimensions": {
      "Crest Elevation": 4154.0,
      "Crest Length": 650.0,
      "Structural Height": 93.0
    },
    "Identity": {
      "Name": "Willow Creek Dam",
      "Watercourse": "Willow Creek",
      "Project": {
        "Organization": "Sun River",
        "Year": 1907
      }
    },
    "Location": {
      "County": "Lewis and Clark",
      "Latitude": 45.7138,
      "Longitude": -111.6998,
      "State": "Montana"
    }
  },
  {
    "Dimensions": {
      "Crest Elevation": 4514.0,
      "Crest Length": 476.0,
      "Structural Height": 70.0
    },
    "Identity": {
      "Name": "Willwood Diversion Dam",
      "Watercourse": "Shoshone River",
      "Project": {
        "Organization": "Shoshone",
        "Year": 1924
      }
    },
    "Location": {
      "County": "Park",
      "Latitude": 44.67157,
      "Longitude": -108.90976,
      "State": "Wyoming"
    }
  },
  {
    "Dimensions": {
      "Crest Elevation": 5581.25,
      "Crest Length": 2464.0,
      "Structural Height": 37.0
    },
    "Identity": {
      "Name": "Wind River Diversion Dam",
      "Watercourse": "Wind River",
      "Project": {
        "Organization": "PSMBP - Riverton Unit",
        "Year": 1921
      }
    },
    "Location": {
      "County": "Fremont",
      "Latitude": 43.22476,
      "Longitude": -108.95534,
      "State": "Wyoming"
    }
  },
  {
    "Dimensions": {
      "Crest Elevation": 1700.0,
      "Crest Length": 151.0,
      "Structural Height": 30.0
    },
    "Identity": {
      "Name": "Woodston Diversion Dam",
      "Watercourse": "Solomon River",
      "Project": {
        "Organization": "PSMBP-Webster",
        "Year": 1957
      }
    },
    "Location": {
      "County": "Rooks",
      "Latitude": 39.4486,
      "Longitude": -99.1331,
      "State": "Kansas"
    }
  },
  {
    "Dimensions": {
      "Crest Elevation": 3004.0,
      "Crest Length": 325.0,
      "Structural Height": 10.5
    },
    "Identity": {
      "Name": "Yellowstone River Diversion Dam",
      "Watercourse": "Yellowstone River",
      "Project": {
        "Organization": "Huntley",
        "Year": 1934
      }
    },
    "Location": {
      "County": "Yellowstone",
      "Latitude": 45.87454673186175,
      "Longitude": -108.34865927696228,
      "State": "Montana"
    }
  },
  {
    "Dimensions": {
      "Crest Elevation": 3197.5,
      "Crest Length": 1360.0,
      "Structural Height": 72.0
    },
    "Identity": {
      "Name": "Yellowtail Afterbay Dam",
      "Watercourse": "Bighorn River",
      "Project": {
        "Organization": "Yellowtail Unit, Pick-Sloan Missouri River Basin Program",
        "Year": 1964
      }
    },
    "Location": {
      "County": "Big Horn",
      "Latitude": 45.31620533823279,
      "Longitude": -107.92131900787354,
      "State": "Montana"
    }
  },
  {
    "Dimensions": {
      "Crest Elevation": 3660.0,
      "Crest Length": 1480.0,
      "Structural Height": 525.0
    },
    "Identity": {
      "Name": "Yellowtail Dam",
      "Watercourse": "Bighorn River",
      "Project": {
        "Organization": "Yellowtail Unit, Pick-Sloan Missouri River Basin Program",
        "Year": 1963
      }
    },
    "Location": {
      "County": "Big Horn",
      "Latitude": 45.3068700743631,
      "Longitude": -107.95775413513184,
      "State": "Montana"
    }
  }
]